{"limit":1000,"totalCount":33,"totalPages":1,"page":1,"items":[{"_id":"629cca1ef4b4089a578e4fce","name":"SIERRA","compulsory":true,"country":"DE","airports":["62614a955e9ded5710444e03"],"geometry":{"type":"Point","coordinates":[10.981666666666667,49.41833333333334]},"elevation":{"value":322,"unit":0,"referenceDatum":1},"createdAt":"2022-06-05T15:22:06.990Z","updatedAt":"2022-06-05T19:50:22.105Z","createdBy":"openaip-system","updatedBy":"OPONcQnzWGOLiJSceNaf8pvx1fA2","elevationGeoid":{"geoidHeight":46.88849399999998,"hae":368.888494},"__v":0},{"_id":"629cca1cf4b4089a578e4fba","name":"NOVEMBER","compulsory":true,"country":"DE","airports":["62614a955e9ded5710444e03"],"geometry":{"type":"Point","coordinates":[10.96,49.586666666666666]},"elevation":{"value":295,"unit":0,"referenceDatum":1},"createdAt":"2022-06-05T15:22:04.817Z","updatedAt":"2022-06-05T19:50:16.989Z","createdBy":"openaip-system","updatedBy":"OPONcQnzWGOLiJSceNaf8pvx1fA2","elevationGeoid":{"geoidHeight":46.92822240000001,"hae":341.9282224},"__v":0},{"_id":"62aed408d9e5b540b6f7df38","name":"CHARLIE","compulsory":true,"country":"DE","airports":["62614a39cb27f42509443f31"],"geometry":{"type":"Point","coordinates":[10.744966666666667,49.35828333333333]},"elevation":{"value":408,"unit":0,"referenceDatum":1},"createdAt":"2022-06-19T07:45:12.596Z","updatedAt":"2022-06-19T07:45:20.615Z","createdBy":"eBT9qSrxquPVguazo7MwJzzaf2p1","updatedBy":"eBT9qSrxquPVguazo7MwJzzaf2p1","elevationGeoid":{"geoidHeight":47.3073732,"hae":455.30737320000003},"__v":0},{"_id":"62aed30cd9e5b540b6f7dc77","name":"BRAVO","compulsory":false,"country":"DE","airports":["62614a39cb27f42509443f31"],"geometry":{"type":"Point","coordinates":[10.681333333333333,49.34205]},"elevation":{"value":355,"unit":0,"referenceDatum":1},"createdAt":"2022-06-19T07:41:00.945Z","updatedAt":"2022-06-19T07:41:08.109Z","createdBy":"eBT9qSrxquPVguazo7MwJzzaf2p1","updatedBy":"eBT9qSrxquPVguazo7MwJzzaf2p1","elevationGeoid":{"geoidHeight":47.435704799999996,"hae":402.4357048},"__v":0},{"_id":"62b009f4d9e5b540b6fc03cf","name":"ECHO1","compulsory":true,"country":"DE","airports":["62614a75cb27f42509445d70"],"geometry":{"type":"Point","coordinates":[10.52481388888889,49.502716666666664]},"elevation":{"value":424,"unit":0,"referenceDatum":1},"createdAt":"2022-06-20T05:47:32.389Z","updatedAt":"2022-06-20T05:47:38.911Z","createdBy":"eBT9qSrxquPVguazo7MwJzzaf2p1","updatedBy":"eBT9qSrxquPVguazo7MwJzzaf2p1","elevationGeoid":{"geoidHeight":47.76961820789998,"hae":471.76961820789995},"__v":0},{"_id":"62aed2a0d9e5b540b6f7dbf4","name":"ALPHA","compulsory":false,"country":"DE","airports":["62614a39cb27f42509443f31"],"geometry":{"type":"Point","coordinates":[10.668966666666666,49.326566666666665]},"elevation":{"value":449,"unit":0,"referenceDatum":1},"createdAt":"2022-06-19T07:39:12.270Z","updatedAt":"2022-06-19T07:39:20.028Z","createdBy":"eBT9qSrxquPVguazo7MwJzzaf2p1","updatedBy":"eBT9qSrxquPVguazo7MwJzzaf2p1","elevationGeoid":{"geoidHeight":47.462914323360025,"hae":496.46291432336},"__v":0},{"_id":"62aeefd3d9e5b540b6f800e2","name":"RIDGE","compulsory":false,"country":"DE","airports":["62614a39cb27f42509443f31"],"geometry":{"type":"Point","coordinates":[10.603283333333334,49.359433333333335]},"elevation":{"value":493,"unit":0,"referenceDatum":1},"createdAt":"2022-06-19T09:43:47.455Z","updatedAt":"2022-06-19T09:43:56.164Z","createdBy":"eBT9qSrxquPVguazo7MwJzzaf2p1","updatedBy":"eBT9qSrxquPVguazo7MwJzzaf2p1","elevationGeoid":{"geoidHeight":47.59046141832002,"hae":540.59046141832},"__v":0},{"_id":"62aed567d9e5b540b6f7e0cd","name":"LINDACH","compulsory":true,"country":"DE","airports":["62614a39cb27f42509443f31"],"geometry":{"type":"Point","coordinates":[10.57075,49.38435]},"elevation":{"value":447,"unit":0,"referenceDatum":1},"createdAt":"2022-06-19T07:51:03.201Z","updatedAt":"2022-06-19T07:51:10.324Z","createdBy":"eBT9qSrxquPVguazo7MwJzzaf2p1","updatedBy":"eBT9qSrxquPVguazo7MwJzzaf2p1","elevationGeoid":{"geoidHeight":47.658905433,"hae":494.658905433},"__v":0},{"_id":"62aef04ad9e5b540b6f8015e","name":"SIERRA","compulsory":false,"country":"DE","airports":["62614a39cb27f42509443f31"],"geometry":{"type":"Point","coordinates":[10.7332,49.294133333333335]},"elevation":{"value":442,"unit":0,"referenceDatum":1},"createdAt":"2022-06-19T09:45:46.100Z","updatedAt":"2022-06-19T09:45:53.200Z","createdBy":"eBT9qSrxquPVguazo7MwJzzaf2p1","updatedBy":"eBT9qSrxquPVguazo7MwJzzaf2p1","elevationGeoid":{"geoidHeight":47.34385790208,"hae":489.34385790208},"__v":0},{"_id":"62aed398d9e5b540b6f7de1c","name":"BRIDGE","compulsory":false,"country":"DE","airports":["62614a39cb27f42509443f31"],"geometry":{"type":"Point","coordinates":[10.682566666666666,49.301633333333335]},"elevation":{"value":457,"unit":0,"referenceDatum":1},"createdAt":"2022-06-19T07:43:20.314Z","updatedAt":"2022-06-19T07:43:28.521Z","createdBy":"eBT9qSrxquPVguazo7MwJzzaf2p1","updatedBy":"eBT9qSrxquPVguazo7MwJzzaf2p1","elevationGeoid":{"geoidHeight":47.44158294096002,"hae":504.44158294096},"__v":0},{"_id":"62aed46bd9e5b540b6f7df97","name":"FIVE TREES","compulsory":false,"country":"DE","airports":["62614a39cb27f42509443f31"],"geometry":{"type":"Point","coordinates":[10.7626,49.2775]},"elevation":{"value":441,"unit":0,"referenceDatum":1},"createdAt":"2022-06-19T07:46:51.872Z","updatedAt":"2022-06-19T07:46:59.852Z","createdBy":"eBT9qSrxquPVguazo7MwJzzaf2p1","updatedBy":"eBT9qSrxquPVguazo7MwJzzaf2p1","elevationGeoid":{"geoidHeight":47.29042137600001,"hae":488.29042137600004},"__v":0},{"_id":"62aef17ad9e5b540b6f80354","name":"WHISKEY","compulsory":true,"country":"DE","airports":["62614a39cb27f42509443f31"],"geometry":{"type":"Point","coordinates":[10.606333333333334,49.30478333333333]},"elevation":{"value":428,"unit":0,"referenceDatum":1},"createdAt":"2022-06-19T09:50:50.429Z","updatedAt":"2022-06-19T09:50:57.159Z","createdBy":"eBT9qSrxquPVguazo7MwJzzaf2p1","updatedBy":"eBT9qSrxquPVguazo7MwJzzaf2p1","elevationGeoid":{"geoidHeight":47.58722241839999,"hae":475.58722241839996},"__v":0},{"_id":"62aeef5fd9e5b540b6f80089","name":"POWER STATION","compulsory":false,"country":"DE","airports":["62614a39cb27f42509443f31"],"geometry":{"type":"Point","coordinates":[10.626533333333333,49.29155]},"elevation":{"value":446,"unit":0,"referenceDatum":1},"createdAt":"2022-06-19T09:41:51.473Z","updatedAt":"2022-06-19T09:41:58.570Z","createdBy":"eBT9qSrxquPVguazo7MwJzzaf2p1","updatedBy":"eBT9qSrxquPVguazo7MwJzzaf2p1","elevationGeoid":{"geoidHeight":47.55087113184001,"hae":493.55087113184004},"__v":0},{"_id":"62aef11ad9e5b540b6f80253","name":"TANGO","compulsory":false,"country":"DE","airports":["62614a39cb27f42509443f31"],"geometry":{"type":"Point","coordinates":[10.611816666666666,49.29533333333333]},"elevation":{"value":413,"unit":0,"referenceDatum":1},"createdAt":"2022-06-19T09:49:14.577Z","updatedAt":"2022-06-19T09:49:21.665Z","createdBy":"eBT9qSrxquPVguazo7MwJzzaf2p1","updatedBy":"eBT9qSrxquPVguazo7MwJzzaf2p1","elevationGeoid":{"geoidHeight":47.57813514719999,"hae":460.5781351472},"__v":0},{"_id":"62b00a63d9e5b540b6fc04e2","name":"ECHO2","compulsory":false,"country":"DE","airports":["62614a75cb27f42509445d70"],"geometry":{"type":"Point","coordinates":[10.450441666666666,49.46787222222222]},"elevation":{"value":392,"unit":0,"referenceDatum":1},"createdAt":"2022-06-20T05:49:23.562Z","updatedAt":"2022-06-20T05:49:31.715Z","createdBy":"eBT9qSrxquPVguazo7MwJzzaf2p1","updatedBy":"eBT9qSrxquPVguazo7MwJzzaf2p1","elevationGeoid":{"geoidHeight":47.905826240159996,"hae":439.90582624015997},"__v":0},{"_id":"629cca1df4b4089a578e4fc5","name":"OSCAR","compulsory":true,"country":"DE","airports":["62614a955e9ded5710444e03"],"geometry":{"type":"Point","coordinates":[11.201666666666666,49.565]},"elevation":{"value":362,"unit":0,"referenceDatum":1},"createdAt":"2022-06-05T15:22:05.984Z","updatedAt":"2022-06-05T19:50:19.512Z","createdBy":"openaip-system","updatedBy":"OPONcQnzWGOLiJSceNaf8pvx1fA2","elevationGeoid":{"geoidHeight":46.7422536,"hae":408.7422536},"__v":0},{"_id":"629cca20f4b4089a578e4fd7","name":"FOXTROT","compulsory":true,"country":"DE","airports":["62614a955e9ded5710444e03"],"geometry":{"type":"Point","coordinates":[11.198333333333334,49.405]},"elevation":{"value":382,"unit":0,"referenceDatum":1},"createdAt":"2022-06-05T15:22:08.057Z","updatedAt":"2022-06-05T19:50:24.696Z","createdBy":"openaip-system","updatedBy":"OPONcQnzWGOLiJSceNaf8pvx1fA2","elevationGeoid":{"geoidHeight":46.6480584,"hae":428.64805839999997},"__v":0},{"_id":"62aef0b7d9e5b540b6f801b5","name":"SPECKHEIM","compulsory":true,"country":"DE","airports":["62614a39cb27f42509443f31"],"geometry":{"type":"Point","coordinates":[10.810716666666666,49.23222222222222]},"elevation":{"value":435,"unit":0,"referenceDatum":1},"createdAt":"2022-06-19T09:47:35.196Z","updatedAt":"2022-06-19T09:47:42.939Z","createdBy":"eBT9qSrxquPVguazo7MwJzzaf2p1","updatedBy":"eBT9qSrxquPVguazo7MwJzzaf2p1","elevationGeoid":{"geoidHeight":47.21115252000001,"hae":482.21115252000004},"__v":0},{"_id":"62aeeee3d9e5b540b6f80038","name":"PLANT","compulsory":false,"country":"DE","airports":["62614a39cb27f42509443f31"],"geometry":{"type":"Point","coordinates":[10.622466666666666,49.26]},"elevation":{"value":470,"unit":0,"referenceDatum":1},"createdAt":"2022-06-19T09:39:47.468Z","updatedAt":"2022-06-19T09:39:58.315Z","createdBy":"eBT9qSrxquPVguazo7MwJzzaf2p1","updatedBy":"eBT9qSrxquPVguazo7MwJzzaf2p1","elevationGeoid":{"geoidHeight":47.563564032000016,"hae":517.563564032},"__v":0},{"_id":"62b02e30d9e5b540b6fc61a5","name":"SIERRA","compulsory":true,"country":"DE","airports":["62614a75cb27f42509445d70"],"geometry":{"type":"Point","coordinates":[10.379294444444444,49.42619444444444]},"elevation":{"value":468,"unit":0,"referenceDatum":1},"createdAt":"2022-06-20T08:22:08.272Z","updatedAt":"2022-06-20T08:22:18.905Z","createdBy":"eBT9qSrxquPVguazo7MwJzzaf2p1","updatedBy":"eBT9qSrxquPVguazo7MwJzzaf2p1","elevationGeoid":{"geoidHeight":48.048516831533334,"hae":516.0485168315333},"__v":0},{"_id":"62b00ac7d9e5b540b6fc05d7","name":"INTERSECTION","compulsory":false,"country":"DE","airports":["62614a75cb27f42509445d70"],"geometry":{"type":"Point","coordinates":[10.354825,49.469027777777775]},"elevation":{"value":325,"unit":0,"referenceDatum":1},"createdAt":"2022-06-20T05:51:03.389Z","updatedAt":"2022-06-20T05:51:10.795Z","createdBy":"eBT9qSrxquPVguazo7MwJzzaf2p1","updatedBy":"eBT9qSrxquPVguazo7MwJzzaf2p1","elevationGeoid":{"geoidHeight":48.07811819050002,"hae":373.07811819050005},"__v":0},{"_id":"62aed4f4d9e5b540b6f7e07e","name":"FOXTROT","compulsory":true,"country":"DE","airports":["62614a39cb27f42509443f31"],"geometry":{"type":"Point","coordinates":[10.601116666666666,49.21608333333333]},"elevation":{"value":477,"unit":0,"referenceDatum":1},"createdAt":"2022-06-19T07:49:08.297Z","updatedAt":"2022-06-19T07:49:15.969Z","createdBy":"eBT9qSrxquPVguazo7MwJzzaf2p1","updatedBy":"eBT9qSrxquPVguazo7MwJzzaf2p1","elevationGeoid":{"geoidHeight":47.607834045600015,"hae":524.6078340456},"__v":0},{"_id":"62b02dd8d9e5b540b6fc60ee","name":"NOVEMBER3","compulsory":false,"country":"DE","airports":["62614a75cb27f42509445d70"],"geometry":{"type":"Point","coordinates":[10.299808333333333,49.49206111111111]},"elevation":{"value":370,"unit":0,"referenceDatum":1},"createdAt":"2022-06-20T08:20:40.506Z","updatedAt":"2022-06-20T08:20:53.208Z","createdBy":"eBT9qSrxquPVguazo7MwJzzaf2p1","updatedBy":"eBT9qSrxquPVguazo7MwJzzaf2p1","elevationGeoid":{"geoidHeight":48.15468126403999,"hae":418.15468126404},"__v":0},{"_id":"62b02cf3d9e5b540b6fc5be8","name":"NOVEMBER1","compulsory":true,"country":"DE","airports":["62614a75cb27f42509445d70"],"geometry":{"type":"Point","coordinates":[10.299266666666666,49.54459722222222]},"elevation":{"value":377,"unit":0,"referenceDatum":1},"createdAt":"2022-06-20T08:16:51.539Z","updatedAt":"2022-06-20T08:17:15.925Z","createdBy":"eBT9qSrxquPVguazo7MwJzzaf2p1","updatedBy":"eBT9qSrxquPVguazo7MwJzzaf2p1","elevationGeoid":{"geoidHeight":48.11435170119998,"hae":425.1143517012},"__v":0},{"_id":"62b02d83d9e5b540b6fc5f55","name":"NOVEMBER2","compulsory":false,"country":"DE","airports":["62614a75cb27f42509445d70"],"geometry":{"type":"Point","coordinates":[10.288408333333333,49.53111111111111]},"elevation":{"value":370,"unit":0,"referenceDatum":1},"createdAt":"2022-06-20T08:19:15.276Z","updatedAt":"2022-06-20T08:19:22.635Z","createdBy":"eBT9qSrxquPVguazo7MwJzzaf2p1","updatedBy":"eBT9qSrxquPVguazo7MwJzzaf2p1","elevationGeoid":{"geoidHeight":48.140065456,"hae":418.140065456},"__v":0},{"_id":"62b02e85d9e5b540b6fc6230","name":"WHISKEY","compulsory":true,"country":"DE","airports":["62614a75cb27f42509445d70"],"geometry":{"type":"Point","coordinates":[10.229075,49.47421388888889]},"elevation":{"value":414,"unit":0,"referenceDatum":1},"createdAt":"2022-06-20T08:23:33.680Z","updatedAt":"2022-06-20T08:23:40.532Z","createdBy":"eBT9qSrxquPVguazo7MwJzzaf2p1","updatedBy":"eBT9qSrxquPVguazo7MwJzzaf2p1","elevationGeoid":{"geoidHeight":48.26386837291,"hae":462.26386837291},"__v":0},{"_id":"629cca0bf4b4089a578e4f0e","name":"ECHO","compulsory":true,"country":"DE","airports":["62614a93cb27f4250944696a"],"geometry":{"type":"Point","coordinates":[10.086375,49.455666666666666]},"elevation":{"value":408,"unit":0,"referenceDatum":1},"createdAt":"2022-06-05T15:21:47.320Z","updatedAt":"2022-06-28T05:11:07.184Z","createdBy":"openaip-system","updatedBy":"eBT9qSrxquPVguazo7MwJzzaf2p1","elevationGeoid":{"geoidHeight":48.437875476000016,"hae":456.43787547600004},"__v":0},{"_id":"62b001ebd9e5b540b6fbf57c","name":"PLANT","compulsory":true,"country":"DE","airports":["62614a725e9ded57104440bd"],"geometry":{"type":"Point","coordinates":[11.451648333333333,49.2057625]},"elevation":{"value":412,"unit":0,"referenceDatum":1},"createdAt":"2022-06-20T05:13:15.907Z","updatedAt":"2022-06-20T05:13:22.637Z","createdBy":"eBT9qSrxquPVguazo7MwJzzaf2p1","updatedBy":"eBT9qSrxquPVguazo7MwJzzaf2p1","elevationGeoid":{"geoidHeight":46.52017916808302,"hae":458.520179168083},"__v":0},{"_id":"629cca0ff4b4089a578e4f32","name":"HOTEL","compulsory":true,"country":"DE","airports":["62614a93cb27f4250944696a"],"geometry":{"type":"Point","coordinates":[10.084288888888889,49.35366111111111]},"elevation":{"value":461,"unit":0,"referenceDatum":1},"createdAt":"2022-06-05T15:21:51.738Z","updatedAt":"2022-06-28T05:12:15.592Z","createdBy":"openaip-system","updatedBy":"eBT9qSrxquPVguazo7MwJzzaf2p1","elevationGeoid":{"geoidHeight":48.49827432176002,"hae":509.49827432176005},"__v":0},{"_id":"62affaa8d9e5b540b6fbde17","name":"WHISKEY","compulsory":false,"country":"DE","airports":["62614a655e9ded5710443c3d"],"geometry":{"type":"Point","coordinates":[11.612166666666667,49.534]},"elevation":{"value":486,"unit":0,"referenceDatum":1},"createdAt":"2022-06-20T04:42:16.025Z","updatedAt":"2022-06-20T04:42:22.367Z","createdBy":"eBT9qSrxquPVguazo7MwJzzaf2p1","updatedBy":"eBT9qSrxquPVguazo7MwJzzaf2p1","elevationGeoid":{"geoidHeight":46.68887150399999,"hae":532.688871504},"__v":0},{"_id":"629cca08f4b4089a578e4efc","name":"NOVEMBER1","compulsory":true,"country":"DE","airports":["62614a93cb27f4250944696a"],"geometry":{"type":"Point","coordinates":[9.962333333333333,49.47792777777778]},"elevation":{"value":406,"unit":0,"referenceDatum":1},"createdAt":"2022-06-05T15:21:44.977Z","updatedAt":"2022-06-28T05:13:19.363Z","createdBy":"openaip-system","updatedBy":"eBT9qSrxquPVguazo7MwJzzaf2p1","elevationGeoid":{"geoidHeight":48.504843481600005,"hae":454.5048434816},"__v":0},{"_id":"629cca0af4b4089a578e4f05","name":"NOVEMBER2","compulsory":false,"country":"DE","airports":["62614a93cb27f4250944696a"],"geometry":{"type":"Point","coordinates":[9.96245,49.43806388888889]},"elevation":{"value":422,"unit":0,"referenceDatum":1},"createdAt":"2022-06-05T15:21:46.103Z","updatedAt":"2022-06-28T05:14:27.360Z","createdBy":"openaip-system","updatedBy":"eBT9qSrxquPVguazo7MwJzzaf2p1","elevationGeoid":{"geoidHeight":48.55084769435999,"hae":470.55084769435996},"__v":0},{"_id":"629cca0cf4b4089a578e4f17","name":"SIERRA","compulsory":true,"country":"DE","airports":["62614a93cb27f4250944696a"],"geometry":{"type":"Point","coordinates":[9.953333333333333,49.336936111111115]},"elevation":{"value":480,"unit":0,"referenceDatum":1},"createdAt":"2022-06-05T15:21:48.379Z","updatedAt":"2022-06-28T05:15:23.075Z","createdBy":"openaip-system","updatedBy":"eBT9qSrxquPVguazo7MwJzzaf2p1","elevationGeoid":{"geoidHeight":48.61945014,"hae":528.61945014},"__v":0}]}