{"limit":1000,"totalCount":36,"totalPages":1,"page":1,"items":[{"_id":"629cca0df4b4089a578e4f20","name":"WHISKEY1","compulsory":true,"country":"DE","airports":["62614a93cb27f4250944696a"],"geometry":{"type":"Point","coordinates":[9.799722222222222,49.40579722222222]},"elevation":{"value":403,"unit":0,"referenceDatum":1},"createdAt":"2022-06-05T15:21:49.508Z","updatedAt":"2022-06-28T05:16:58.485Z","createdBy":"openaip-system","updatedBy":"eBT9qSrxquPVguazo7MwJzzaf2p1","elevationGeoid":{"geoidHeight":48.62014035133333,"hae":451.62014035133336},"__v":0},{"_id":"629cca0ef4b4089a578e4f29","name":"WHISKEY2","compulsory":false,"country":"DE","airports":["62614a93cb27f4250944696a"],"geometry":{"type":"Point","coordinates":[9.839547222222222,49.389313888888886]},"elevation":{"value":406,"unit":0,"referenceDatum":1},"createdAt":"2022-06-05T15:21:50.545Z","updatedAt":"2022-06-28T05:18:08.982Z","createdBy":"openaip-system","updatedBy":"eBT9qSrxquPVguazo7MwJzzaf2p1","elevationGeoid":{"geoidHeight":48.62750549681334,"hae":454.62750549681334},"__v":0},{"_id":"629cca08f4b4089a578e4efc","name":"NOVEMBER1","compulsory":true,"country":"DE","airports":["62614a93cb27f4250944696a"],"geometry":{"type":"Point","coordinates":[9.962333333333333,49.47792777777778]},"elevation":{"value":406,"unit":0,"referenceDatum":1},"createdAt":"2022-06-05T15:21:44.977Z","updatedAt":"2022-06-28T05:13:19.363Z","createdBy":"openaip-system","updatedBy":"eBT9qSrxquPVguazo7MwJzzaf2p1","elevationGeoid":{"geoidHeight":48.504843481600005,"hae":454.5048434816},"__v":0},{"_id":"629cca0af4b4089a578e4f05","name":"NOVEMBER2","compulsory":false,"country":"DE","airports":["62614a93cb27f4250944696a"],"geometry":{"type":"Point","coordinates":[9.96245,49.43806388888889]},"elevation":{"value":422,"unit":0,"referenceDatum":1},"createdAt":"2022-06-05T15:21:46.103Z","updatedAt":"2022-06-28T05:14:27.360Z","createdBy":"openaip-system","updatedBy":"eBT9qSrxquPVguazo7MwJzzaf2p1","elevationGeoid":{"geoidHeight":48.55084769435999,"hae":470.55084769435996},"__v":0},{"_id":"629cca0cf4b4089a578e4f17","name":"SIERRA","compulsory":true,"country":"DE","airports":["62614a93cb27f4250944696a"],"geometry":{"type":"Point","coordinates":[9.953333333333333,49.336936111111115]},"elevation":{"value":480,"unit":0,"referenceDatum":1},"createdAt":"2022-06-05T15:21:48.379Z","updatedAt":"2022-06-28T05:15:23.075Z","createdBy":"openaip-system","updatedBy":"eBT9qSrxquPVguazo7MwJzzaf2p1","elevationGeoid":{"geoidHeight":48.61945014,"hae":528.61945014},"__v":0},{"_id":"629cca0bf4b4089a578e4f0e","name":"ECHO","compulsory":true,"country":"DE","airports":["62614a93cb27f4250944696a"],"geometry":{"type":"Point","coordinates":[10.086375,49.455666666666666]},"elevation":{"value":408,"unit":0,"referenceDatum":1},"createdAt":"2022-06-05T15:21:47.320Z","updatedAt":"2022-06-28T05:11:07.184Z","createdBy":"openaip-system","updatedBy":"eBT9qSrxquPVguazo7MwJzzaf2p1","elevationGeoid":{"geoidHeight":48.437875476000016,"hae":456.43787547600004},"__v":0},{"_id":"629cca0ff4b4089a578e4f32","name":"HOTEL","compulsory":true,"country":"DE","airports":["62614a93cb27f4250944696a"],"geometry":{"type":"Point","coordinates":[10.084288888888889,49.35366111111111]},"elevation":{"value":461,"unit":0,"referenceDatum":1},"createdAt":"2022-06-05T15:21:51.738Z","updatedAt":"2022-06-28T05:12:15.592Z","createdBy":"openaip-system","updatedBy":"eBT9qSrxquPVguazo7MwJzzaf2p1","elevationGeoid":{"geoidHeight":48.49827432176002,"hae":509.49827432176005},"__v":0},{"_id":"62b02e85d9e5b540b6fc6230","name":"WHISKEY","compulsory":true,"country":"DE","airports":["62614a75cb27f42509445d70"],"geometry":{"type":"Point","coordinates":[10.229075,49.47421388888889]},"elevation":{"value":414,"unit":0,"referenceDatum":1},"createdAt":"2022-06-20T08:23:33.680Z","updatedAt":"2022-06-20T08:23:40.532Z","createdBy":"eBT9qSrxquPVguazo7MwJzzaf2p1","updatedBy":"eBT9qSrxquPVguazo7MwJzzaf2p1","elevationGeoid":{"geoidHeight":48.26386837291,"hae":462.26386837291},"__v":0},{"_id":"62b02d83d9e5b540b6fc5f55","name":"NOVEMBER2","compulsory":false,"country":"DE","airports":["62614a75cb27f42509445d70"],"geometry":{"type":"Point","coordinates":[10.288408333333333,49.53111111111111]},"elevation":{"value":370,"unit":0,"referenceDatum":1},"createdAt":"2022-06-20T08:19:15.276Z","updatedAt":"2022-06-20T08:19:22.635Z","createdBy":"eBT9qSrxquPVguazo7MwJzzaf2p1","updatedBy":"eBT9qSrxquPVguazo7MwJzzaf2p1","elevationGeoid":{"geoidHeight":48.140065456,"hae":418.140065456},"__v":0},{"_id":"62b02dd8d9e5b540b6fc60ee","name":"NOVEMBER3","compulsory":false,"country":"DE","airports":["62614a75cb27f42509445d70"],"geometry":{"type":"Point","coordinates":[10.299808333333333,49.49206111111111]},"elevation":{"value":370,"unit":0,"referenceDatum":1},"createdAt":"2022-06-20T08:20:40.506Z","updatedAt":"2022-06-20T08:20:53.208Z","createdBy":"eBT9qSrxquPVguazo7MwJzzaf2p1","updatedBy":"eBT9qSrxquPVguazo7MwJzzaf2p1","elevationGeoid":{"geoidHeight":48.15468126403999,"hae":418.15468126404},"__v":0},{"_id":"62b02cf3d9e5b540b6fc5be8","name":"NOVEMBER1","compulsory":true,"country":"DE","airports":["62614a75cb27f42509445d70"],"geometry":{"type":"Point","coordinates":[10.299266666666666,49.54459722222222]},"elevation":{"value":377,"unit":0,"referenceDatum":1},"createdAt":"2022-06-20T08:16:51.539Z","updatedAt":"2022-06-20T08:17:15.925Z","createdBy":"eBT9qSrxquPVguazo7MwJzzaf2p1","updatedBy":"eBT9qSrxquPVguazo7MwJzzaf2p1","elevationGeoid":{"geoidHeight":48.11435170119998,"hae":425.1143517012},"__v":0},{"_id":"62b00ac7d9e5b540b6fc05d7","name":"INTERSECTION","compulsory":false,"country":"DE","airports":["62614a75cb27f42509445d70"],"geometry":{"type":"Point","coordinates":[10.354825,49.469027777777775]},"elevation":{"value":325,"unit":0,"referenceDatum":1},"createdAt":"2022-06-20T05:51:03.389Z","updatedAt":"2022-06-20T05:51:10.795Z","createdBy":"eBT9qSrxquPVguazo7MwJzzaf2p1","updatedBy":"eBT9qSrxquPVguazo7MwJzzaf2p1","elevationGeoid":{"geoidHeight":48.07811819050002,"hae":373.07811819050005},"__v":0},{"_id":"62b02e30d9e5b540b6fc61a5","name":"SIERRA","compulsory":true,"country":"DE","airports":["62614a75cb27f42509445d70"],"geometry":{"type":"Point","coordinates":[10.379294444444444,49.42619444444444]},"elevation":{"value":468,"unit":0,"referenceDatum":1},"createdAt":"2022-06-20T08:22:08.272Z","updatedAt":"2022-06-20T08:22:18.905Z","createdBy":"eBT9qSrxquPVguazo7MwJzzaf2p1","updatedBy":"eBT9qSrxquPVguazo7MwJzzaf2p1","elevationGeoid":{"geoidHeight":48.048516831533334,"hae":516.0485168315333},"__v":0},{"_id":"62b00a63d9e5b540b6fc04e2","name":"ECHO2","compulsory":false,"country":"DE","airports":["62614a75cb27f42509445d70"],"geometry":{"type":"Point","coordinates":[10.450441666666666,49.46787222222222]},"elevation":{"value":392,"unit":0,"referenceDatum":1},"createdAt":"2022-06-20T05:49:23.562Z","updatedAt":"2022-06-20T05:49:31.715Z","createdBy":"eBT9qSrxquPVguazo7MwJzzaf2p1","updatedBy":"eBT9qSrxquPVguazo7MwJzzaf2p1","elevationGeoid":{"geoidHeight":47.905826240159996,"hae":439.90582624015997},"__v":0},{"_id":"62b009f4d9e5b540b6fc03cf","name":"ECHO1","compulsory":true,"country":"DE","airports":["62614a75cb27f42509445d70"],"geometry":{"type":"Point","coordinates":[10.52481388888889,49.502716666666664]},"elevation":{"value":424,"unit":0,"referenceDatum":1},"createdAt":"2022-06-20T05:47:32.389Z","updatedAt":"2022-06-20T05:47:38.911Z","createdBy":"eBT9qSrxquPVguazo7MwJzzaf2p1","updatedBy":"eBT9qSrxquPVguazo7MwJzzaf2p1","elevationGeoid":{"geoidHeight":47.76961820789998,"hae":471.76961820789995},"__v":0},{"_id":"62aed567d9e5b540b6f7e0cd","name":"LINDACH","compulsory":true,"country":"DE","airports":["62614a39cb27f42509443f31"],"geometry":{"type":"Point","coordinates":[10.57075,49.38435]},"elevation":{"value":447,"unit":0,"referenceDatum":1},"createdAt":"2022-06-19T07:51:03.201Z","updatedAt":"2022-06-19T07:51:10.324Z","createdBy":"eBT9qSrxquPVguazo7MwJzzaf2p1","updatedBy":"eBT9qSrxquPVguazo7MwJzzaf2p1","elevationGeoid":{"geoidHeight":47.658905433,"hae":494.658905433},"__v":0},{"_id":"62aeefd3d9e5b540b6f800e2","name":"RIDGE","compulsory":false,"country":"DE","airports":["62614a39cb27f42509443f31"],"geometry":{"type":"Point","coordinates":[10.603283333333334,49.359433333333335]},"elevation":{"value":493,"unit":0,"referenceDatum":1},"createdAt":"2022-06-19T09:43:47.455Z","updatedAt":"2022-06-19T09:43:56.164Z","createdBy":"eBT9qSrxquPVguazo7MwJzzaf2p1","updatedBy":"eBT9qSrxquPVguazo7MwJzzaf2p1","elevationGeoid":{"geoidHeight":47.59046141832002,"hae":540.59046141832},"__v":0},{"_id":"629cc9ecf4b4089a578e4e06","name":"ECHO","compulsory":true,"country":"DE","airports":["62614a87cb27f42509446445"],"geometry":{"type":"Point","coordinates":[8.621666666666666,49.538333333333334]},"elevation":{"value":98,"unit":0,"referenceDatum":1},"createdAt":"2022-06-05T15:21:16.333Z","updatedAt":"2022-06-05T19:48:25.985Z","createdBy":"openaip-system","updatedBy":"OPONcQnzWGOLiJSceNaf8pvx1fA2","elevationGeoid":{"geoidHeight":47.7581208,"hae":145.7581208},"__v":0},{"_id":"62aef17ad9e5b540b6f80354","name":"WHISKEY","compulsory":true,"country":"DE","airports":["62614a39cb27f42509443f31"],"geometry":{"type":"Point","coordinates":[10.606333333333334,49.30478333333333]},"elevation":{"value":428,"unit":0,"referenceDatum":1},"createdAt":"2022-06-19T09:50:50.429Z","updatedAt":"2022-06-19T09:50:57.159Z","createdBy":"eBT9qSrxquPVguazo7MwJzzaf2p1","updatedBy":"eBT9qSrxquPVguazo7MwJzzaf2p1","elevationGeoid":{"geoidHeight":47.58722241839999,"hae":475.58722241839996},"__v":0},{"_id":"62aef11ad9e5b540b6f80253","name":"TANGO","compulsory":false,"country":"DE","airports":["62614a39cb27f42509443f31"],"geometry":{"type":"Point","coordinates":[10.611816666666666,49.29533333333333]},"elevation":{"value":413,"unit":0,"referenceDatum":1},"createdAt":"2022-06-19T09:49:14.577Z","updatedAt":"2022-06-19T09:49:21.665Z","createdBy":"eBT9qSrxquPVguazo7MwJzzaf2p1","updatedBy":"eBT9qSrxquPVguazo7MwJzzaf2p1","elevationGeoid":{"geoidHeight":47.57813514719999,"hae":460.5781351472},"__v":0},{"_id":"629c8da1c4c904b78bbe8917","name":"E","compulsory":true,"country":"DE","airports":["62614a5d5e9ded57104438c4"],"geometry":{"type":"Point","coordinates":[8.836666666666666,49.95166666666667]},"elevation":{"value":141,"unit":0,"referenceDatum":1},"createdAt":"2022-06-05T11:04:01.756Z","updatedAt":"2022-06-05T11:04:10.183Z","createdBy":"eBT9qSrxquPVguazo7MwJzzaf2p1","updatedBy":"eBT9qSrxquPVguazo7MwJzzaf2p1","elevationGeoid":{"geoidHeight":48.130900800000006,"hae":189.1309008},"__v":0},{"_id":"629c8e77c4c904b78bbe8a15","name":"Y","compulsory":true,"country":"DE","airports":["62614a5d5e9ded57104438c4"],"geometry":{"type":"Point","coordinates":[8.856666666666667,49.97]},"elevation":{"value":134,"unit":0,"referenceDatum":1},"remarks":"only JET/TURBOPROP","createdAt":"2022-06-05T11:07:35.375Z","updatedAt":"2022-06-05T11:07:43.004Z","createdBy":"eBT9qSrxquPVguazo7MwJzzaf2p1","updatedBy":"eBT9qSrxquPVguazo7MwJzzaf2p1","elevationGeoid":{"geoidHeight":48.11027519999999,"hae":182.1102752},"__v":0},{"_id":"62aeef5fd9e5b540b6f80089","name":"POWER STATION","compulsory":false,"country":"DE","airports":["62614a39cb27f42509443f31"],"geometry":{"type":"Point","coordinates":[10.626533333333333,49.29155]},"elevation":{"value":446,"unit":0,"referenceDatum":1},"createdAt":"2022-06-19T09:41:51.473Z","updatedAt":"2022-06-19T09:41:58.570Z","createdBy":"eBT9qSrxquPVguazo7MwJzzaf2p1","updatedBy":"eBT9qSrxquPVguazo7MwJzzaf2p1","elevationGeoid":{"geoidHeight":47.55087113184001,"hae":493.55087113184004},"__v":0},{"_id":"62aeeee3d9e5b540b6f80038","name":"PLANT","compulsory":false,"country":"DE","airports":["62614a39cb27f42509443f31"],"geometry":{"type":"Point","coordinates":[10.622466666666666,49.26]},"elevation":{"value":470,"unit":0,"referenceDatum":1},"createdAt":"2022-06-19T09:39:47.468Z","updatedAt":"2022-06-19T09:39:58.315Z","createdBy":"eBT9qSrxquPVguazo7MwJzzaf2p1","updatedBy":"eBT9qSrxquPVguazo7MwJzzaf2p1","elevationGeoid":{"geoidHeight":47.563564032000016,"hae":517.563564032},"__v":0},{"_id":"629c8df8c4c904b78bbe89a2","name":"K","compulsory":true,"country":"DE","airports":["62614a5d5e9ded57104438c4"],"geometry":{"type":"Point","coordinates":[8.723333333333333,49.876666666666665]},"elevation":{"value":174,"unit":0,"referenceDatum":1},"createdAt":"2022-06-05T11:05:28.110Z","updatedAt":"2022-06-05T11:05:35.698Z","createdBy":"eBT9qSrxquPVguazo7MwJzzaf2p1","updatedBy":"eBT9qSrxquPVguazo7MwJzzaf2p1","elevationGeoid":{"geoidHeight":48.17790719999999,"hae":222.1779072},"__v":0},{"_id":"62aed4f4d9e5b540b6f7e07e","name":"FOXTROT","compulsory":true,"country":"DE","airports":["62614a39cb27f42509443f31"],"geometry":{"type":"Point","coordinates":[10.601116666666666,49.21608333333333]},"elevation":{"value":477,"unit":0,"referenceDatum":1},"createdAt":"2022-06-19T07:49:08.297Z","updatedAt":"2022-06-19T07:49:15.969Z","createdBy":"eBT9qSrxquPVguazo7MwJzzaf2p1","updatedBy":"eBT9qSrxquPVguazo7MwJzzaf2p1","elevationGeoid":{"geoidHeight":47.607834045600015,"hae":524.6078340456},"__v":0},{"_id":"629cca2bf4b4089a578e5037","name":"AUTOKINO","compulsory":false,"country":"DE","airports":["62614a9b5e9ded57104450d1"],"geometry":{"type":"Point","coordinates":[9.19,48.875]},"elevation":{"value":297,"unit":0,"referenceDatum":1},"createdAt":"2022-06-05T15:22:19.338Z","updatedAt":"2024-04-03T19:10:49.793Z","createdBy":"openaip-system","updatedBy":"eBT9qSrxquPVguazo7MwJzzaf2p1","elevationGeoid":{"geoidHeight":48.395640000000014,"hae":345.39564},"__v":1},{"_id":"629cc9ebf4b4089a578e4dfd","name":"KILO","compulsory":true,"country":"DE","airports":["62614a87cb27f42509446445"],"geometry":{"type":"Point","coordinates":[8.556666666666667,49.556666666666665]},"elevation":{"value":103,"unit":0,"referenceDatum":1},"createdAt":"2022-06-05T15:21:15.308Z","updatedAt":"2022-06-05T19:48:23.327Z","createdBy":"openaip-system","updatedBy":"OPONcQnzWGOLiJSceNaf8pvx1fA2","elevationGeoid":{"geoidHeight":47.618308799999994,"hae":150.6183088},"__v":0},{"_id":"62aed2a0d9e5b540b6f7dbf4","name":"ALPHA","compulsory":false,"country":"DE","airports":["62614a39cb27f42509443f31"],"geometry":{"type":"Point","coordinates":[10.668966666666666,49.326566666666665]},"elevation":{"value":449,"unit":0,"referenceDatum":1},"createdAt":"2022-06-19T07:39:12.270Z","updatedAt":"2022-06-19T07:39:20.028Z","createdBy":"eBT9qSrxquPVguazo7MwJzzaf2p1","updatedBy":"eBT9qSrxquPVguazo7MwJzzaf2p1","elevationGeoid":{"geoidHeight":47.462914323360025,"hae":496.46291432336},"__v":0},{"_id":"629cca2cf4b4089a578e5040","name":"OEFFINGEN","compulsory":false,"country":"DE","airports":["62614a9b5e9ded57104450d1"],"geometry":{"type":"Point","coordinates":[9.268333333333333,48.848333333333336]},"elevation":{"value":253,"unit":0,"referenceDatum":1},"createdAt":"2022-06-05T15:22:20.379Z","updatedAt":"2024-04-03T19:10:45.317Z","createdBy":"openaip-system","updatedBy":"eBT9qSrxquPVguazo7MwJzzaf2p1","elevationGeoid":{"geoidHeight":48.33401520000004,"hae":301.33401520000007},"__v":1},{"_id":"62aed30cd9e5b540b6f7dc77","name":"BRAVO","compulsory":false,"country":"DE","airports":["62614a39cb27f42509443f31"],"geometry":{"type":"Point","coordinates":[10.681333333333333,49.34205]},"elevation":{"value":355,"unit":0,"referenceDatum":1},"createdAt":"2022-06-19T07:41:00.945Z","updatedAt":"2022-06-19T07:41:08.109Z","createdBy":"eBT9qSrxquPVguazo7MwJzzaf2p1","updatedBy":"eBT9qSrxquPVguazo7MwJzzaf2p1","elevationGeoid":{"geoidHeight":47.435704799999996,"hae":402.4357048},"__v":0},{"_id":"62aed398d9e5b540b6f7de1c","name":"BRIDGE","compulsory":false,"country":"DE","airports":["62614a39cb27f42509443f31"],"geometry":{"type":"Point","coordinates":[10.682566666666666,49.301633333333335]},"elevation":{"value":457,"unit":0,"referenceDatum":1},"createdAt":"2022-06-19T07:43:20.314Z","updatedAt":"2022-06-19T07:43:28.521Z","createdBy":"eBT9qSrxquPVguazo7MwJzzaf2p1","updatedBy":"eBT9qSrxquPVguazo7MwJzzaf2p1","elevationGeoid":{"geoidHeight":47.44158294096002,"hae":504.44158294096},"__v":0},{"_id":"629cca2af4b4089a578e502e","name":"WASSERTURM","compulsory":false,"country":"DE","airports":["62614a9b5e9ded57104450d1"],"geometry":{"type":"Point","coordinates":[9.138333333333334,48.87166666666667]},"elevation":{"value":335,"unit":0,"referenceDatum":1},"createdAt":"2022-06-05T15:22:18.264Z","updatedAt":"2024-04-03T19:10:47.577Z","createdBy":"openaip-system","updatedBy":"eBT9qSrxquPVguazo7MwJzzaf2p1","elevationGeoid":{"geoidHeight":48.437469599999986,"hae":383.4374696},"__v":1},{"_id":"629c8d44c4c904b78bbe88d7","name":"T","compulsory":true,"country":"DE","airports":["62614a5d5e9ded57104438c4"],"geometry":{"type":"Point","coordinates":[8.813333333333333,50.005]},"elevation":{"value":144,"unit":0,"referenceDatum":1},"createdAt":"2022-06-05T11:02:28.602Z","updatedAt":"2022-06-05T11:02:37.480Z","createdBy":"eBT9qSrxquPVguazo7MwJzzaf2p1","updatedBy":"eBT9qSrxquPVguazo7MwJzzaf2p1","elevationGeoid":{"geoidHeight":48.09115920000002,"hae":192.09115920000002},"__v":0},{"_id":"629cc9eef4b4089a578e4e18","name":"SIERRA","compulsory":true,"country":"DE","airports":["62614a87cb27f42509446445"],"geometry":{"type":"Point","coordinates":[8.51,49.41]},"elevation":{"value":93,"unit":0,"referenceDatum":1},"createdAt":"2022-06-05T15:21:18.414Z","updatedAt":"2022-06-05T19:48:30.986Z","createdBy":"openaip-system","updatedBy":"OPONcQnzWGOLiJSceNaf8pvx1fA2","elevationGeoid":{"geoidHeight":47.54560799999999,"hae":140.545608},"__v":0},{"_id":"62aed408d9e5b540b6f7df38","name":"CHARLIE","compulsory":true,"country":"DE","airports":["62614a39cb27f42509443f31"],"geometry":{"type":"Point","coordinates":[10.744966666666667,49.35828333333333]},"elevation":{"value":408,"unit":0,"referenceDatum":1},"createdAt":"2022-06-19T07:45:12.596Z","updatedAt":"2022-06-19T07:45:20.615Z","createdBy":"eBT9qSrxquPVguazo7MwJzzaf2p1","updatedBy":"eBT9qSrxquPVguazo7MwJzzaf2p1","elevationGeoid":{"geoidHeight":47.3073732,"hae":455.30737320000003},"__v":0}]}