{"limit":1000,"totalCount":371,"totalPages":1,"page":1,"items":[{"_id":"629cc9fcf4b4089a578e4e8a","name":"FOXTROT2","compulsory":true,"country":"DE","airports":["62614a8dcb27f42509446703"],"geometry":{"type":"Point","coordinates":[11.821666666666667,48.39333333333333]},"elevation":{"value":433,"unit":0,"referenceDatum":1},"createdAt":"2022-06-05T15:21:32.037Z","updatedAt":"2022-06-05T19:49:01.051Z","createdBy":"openaip-system","updatedBy":"OPONcQnzWGOLiJSceNaf8pvx1fA2","elevationGeoid":{"geoidHeight":45.612119999999976,"hae":478.61212},"__v":0},{"_id":"629cc9faf4b4089a578e4e81","name":"FOXTROT1","compulsory":true,"country":"DE","airports":["62614a8dcb27f42509446703"],"geometry":{"type":"Point","coordinates":[11.811666666666667,48.46]},"elevation":{"value":475,"unit":0,"referenceDatum":1},"createdAt":"2022-06-05T15:21:30.991Z","updatedAt":"2022-06-05T19:48:58.566Z","createdBy":"openaip-system","updatedBy":"OPONcQnzWGOLiJSceNaf8pvx1fA2","elevationGeoid":{"geoidHeight":45.74501760000001,"hae":520.7450176},"__v":0},{"_id":"629cc9fef4b4089a578e4e9c","name":"HOTEL2","compulsory":true,"country":"DE","airports":["62614a8dcb27f42509446703"],"geometry":{"type":"Point","coordinates":[11.798333333333334,48.32]},"elevation":{"value":455,"unit":0,"referenceDatum":1},"createdAt":"2022-06-05T15:21:34.092Z","updatedAt":"2022-06-05T19:49:06.060Z","createdBy":"openaip-system","updatedBy":"OPONcQnzWGOLiJSceNaf8pvx1fA2","elevationGeoid":{"geoidHeight":45.5221296,"hae":500.52212959999997},"__v":0},{"_id":"629cc9fdf4b4089a578e4e93","name":"HOTEL1","compulsory":true,"country":"DE","airports":["62614a8dcb27f42509446703"],"geometry":{"type":"Point","coordinates":[11.806666666666667,48.25]},"elevation":{"value":482,"unit":0,"referenceDatum":1},"createdAt":"2022-06-05T15:21:33.076Z","updatedAt":"2022-06-05T19:49:03.568Z","createdBy":"openaip-system","updatedBy":"OPONcQnzWGOLiJSceNaf8pvx1fA2","elevationGeoid":{"geoidHeight":45.43380000000002,"hae":527.4338},"__v":0},{"_id":"629cc9bcf4b4089a578e4c5f","name":"SIERRA","compulsory":true,"country":"DE","airports":["62614a76cb27f42509445dc1"],"geometry":{"type":"Point","coordinates":[11.520555555555555,48.644444444444446]},"elevation":{"value":410,"unit":0,"referenceDatum":1},"createdAt":"2022-06-05T15:20:28.989Z","updatedAt":"2022-06-21T09:57:11.103Z","createdBy":"openaip-system","updatedBy":"eBT9qSrxquPVguazo7MwJzzaf2p1","elevationGeoid":{"geoidHeight":46.22418266666665,"hae":456.22418266666665},"__v":0},{"_id":"629cc9bbf4b4089a578e4c56","name":"NOVEMBER2","compulsory":false,"country":"DE","airports":["62614a76cb27f42509445dc1"],"geometry":{"type":"Point","coordinates":[11.460833333333333,48.763888888888886]},"elevation":{"value":363,"unit":0,"referenceDatum":1},"createdAt":"2022-06-05T15:20:27.934Z","updatedAt":"2022-06-21T09:56:06.630Z","createdBy":"openaip-system","updatedBy":"eBT9qSrxquPVguazo7MwJzzaf2p1","elevationGeoid":{"geoidHeight":46.440860000000015,"hae":409.44086000000004},"__v":0},{"_id":"629dbd991985b861f0e44429","name":"TACHINGER SEE","compulsory":true,"country":"AT","airports":["626144391e911989f7b3808c"],"geometry":{"type":"Point","coordinates":[12.74389,48.0025]},"elevation":{"value":462,"unit":0,"referenceDatum":1},"createdAt":"2022-06-06T08:40:57.415Z","updatedAt":"2023-03-05T08:33:59.990Z","createdBy":"openaip-system","updatedBy":"OPONcQnzWGOLiJSceNaf8pvx1fA2","elevationGeoid":{"geoidHeight":45.00678636239999,"hae":507.0067863624},"__v":2},{"_id":"629cca23f4b4089a578e4ff4","name":"ECHO2","compulsory":true,"country":"DE","airports":["62614a965e9ded5710444e82"],"geometry":{"type":"Point","coordinates":[11.333333333333334,48.055]},"elevation":{"value":626,"unit":0,"referenceDatum":1},"createdAt":"2022-06-05T15:22:11.327Z","updatedAt":"2023-03-05T08:17:05.224Z","createdBy":"openaip-system","updatedBy":"OPONcQnzWGOLiJSceNaf8pvx1fA2","elevationGeoid":{"geoidHeight":46.174619999999976,"hae":672.17462},"__v":2},{"_id":"629cc9baf4b4089a578e4c4d","name":"NOVEMBER1","compulsory":true,"country":"DE","airports":["62614a76cb27f42509445dc1"],"geometry":{"type":"Point","coordinates":[11.473888888888888,48.83722222222222]},"elevation":{"value":453,"unit":0,"referenceDatum":1},"createdAt":"2022-06-05T15:20:26.897Z","updatedAt":"2022-06-21T09:55:03.432Z","createdBy":"openaip-system","updatedBy":"eBT9qSrxquPVguazo7MwJzzaf2p1","elevationGeoid":{"geoidHeight":46.51401933333332,"hae":499.5140193333333},"__v":0},{"_id":"62ba87271da2b4c8e4b854e9","name":"NOVEMBER","compulsory":true,"country":"DE","airports":["62614a905e9ded5710444bec"],"geometry":{"type":"Point","coordinates":[11.325,48.82194444444445]},"elevation":{"value":399,"unit":0,"referenceDatum":1},"createdAt":"2022-06-28T04:44:23.586Z","updatedAt":"2022-06-28T04:44:30.899Z","createdBy":"eBT9qSrxquPVguazo7MwJzzaf2p1","updatedBy":"eBT9qSrxquPVguazo7MwJzzaf2p1","elevationGeoid":{"geoidHeight":46.65709500000003,"hae":445.657095},"__v":0},{"_id":"629cc95ff4b4089a578e492f","name":"SIERRA1","compulsory":true,"country":"DE","airports":["62614a3bcb27f42509444078"],"geometry":{"type":"Point","coordinates":[11.066666666666666,48.39333333333333]},"elevation":{"value":469,"unit":0,"referenceDatum":1},"createdAt":"2022-06-05T15:18:55.877Z","updatedAt":"2022-06-05T19:42:53.165Z","createdBy":"openaip-system","updatedBy":"OPONcQnzWGOLiJSceNaf8pvx1fA2","elevationGeoid":{"geoidHeight":46.422383999999994,"hae":515.422384},"__v":0},{"_id":"629cca21f4b4089a578e4fe2","name":"WHISKEY","compulsory":true,"country":"DE","airports":["62614a965e9ded5710444e82"],"geometry":{"type":"Point","coordinates":[11.15,48.083333333333336]},"elevation":{"value":544,"unit":0,"referenceDatum":1},"createdAt":"2022-06-05T15:22:09.286Z","updatedAt":"2023-03-05T08:16:28.621Z","createdBy":"openaip-system","updatedBy":"OPONcQnzWGOLiJSceNaf8pvx1fA2","elevationGeoid":{"geoidHeight":46.3518,"hae":590.3518},"__v":2},{"_id":"629dbd931985b861f0e443e7","name":"TEISENDORF","compulsory":true,"country":"AT","airports":["626144391e911989f7b3808c"],"geometry":{"type":"Point","coordinates":[12.81111,47.85417]},"elevation":{"value":483,"unit":0,"referenceDatum":1},"createdAt":"2022-06-06T08:40:51.280Z","updatedAt":"2023-03-05T08:33:33.927Z","createdBy":"openaip-system","updatedBy":"OPONcQnzWGOLiJSceNaf8pvx1fA2","elevationGeoid":{"geoidHeight":45.43583674799041,"hae":528.4358367479904},"__v":2},{"_id":"629cc95ef4b4089a578e4926","name":"OSCAR2","compulsory":false,"country":"DE","airports":["62614a3bcb27f42509444078"],"geometry":{"type":"Point","coordinates":[10.991666666666667,48.45333333333333]},"elevation":{"value":482,"unit":0,"referenceDatum":1},"createdAt":"2022-06-05T15:18:54.770Z","updatedAt":"2022-06-05T19:42:50.647Z","createdBy":"openaip-system","updatedBy":"OPONcQnzWGOLiJSceNaf8pvx1fA2","elevationGeoid":{"geoidHeight":46.50958800000001,"hae":528.509588},"__v":0},{"_id":"629dbd981985b861f0e4441e","name":"GRABENSEE","compulsory":true,"country":"AT","airports":["626144391e911989f7b3808c"],"geometry":{"type":"Point","coordinates":[13.07583,48.0025]},"elevation":{"value":548,"unit":0,"referenceDatum":1},"createdAt":"2022-06-06T08:40:56.424Z","updatedAt":"2022-07-20T05:24:38.549Z","createdBy":"openaip-system","updatedBy":"OPONcQnzWGOLiJSceNaf8pvx1fA2","elevationGeoid":{"geoidHeight":45.054209754,"hae":593.054209754},"__v":0},{"_id":"629cc95df4b4089a578e491d","name":"OSCAR1","compulsory":true,"country":"DE","airports":["62614a3bcb27f42509444078"],"geometry":{"type":"Point","coordinates":[10.983333333333333,48.513333333333335]},"elevation":{"value":462,"unit":0,"referenceDatum":1},"createdAt":"2022-06-05T15:18:53.599Z","updatedAt":"2022-06-05T19:42:48.147Z","createdBy":"openaip-system","updatedBy":"OPONcQnzWGOLiJSceNaf8pvx1fA2","elevationGeoid":{"geoidHeight":46.56979200000001,"hae":508.569792},"__v":0},{"_id":"629cc960f4b4089a578e4938","name":"SIERRA2","compulsory":false,"country":"DE","airports":["62614a3bcb27f42509444078"],"geometry":{"type":"Point","coordinates":[10.953333333333333,48.405]},"elevation":{"value":466,"unit":0,"referenceDatum":1},"createdAt":"2022-06-05T15:18:56.962Z","updatedAt":"2022-06-05T19:42:55.652Z","createdBy":"openaip-system","updatedBy":"OPONcQnzWGOLiJSceNaf8pvx1fA2","elevationGeoid":{"geoidHeight":46.510029599999996,"hae":512.5100296},"__v":0},{"_id":"629dbda11985b861f0e44485","name":"OBERNDORF","compulsory":false,"country":"AT","airports":["626144351e911989f7b37eff"],"geometry":{"type":"Point","coordinates":[12.206667,47.606667]},"elevation":{"value":480,"unit":0,"referenceDatum":1},"createdAt":"2022-06-06T08:41:05.501Z","updatedAt":"2022-07-25T17:21:13.936Z","createdBy":"openaip-system","updatedBy":"OPONcQnzWGOLiJSceNaf8pvx1fA2","elevationGeoid":{"geoidHeight":47.09284625279952,"hae":527.0928462527995},"__v":0},{"_id":"629dbd911985b861f0e443d1","name":"AINRING","compulsory":false,"country":"AT","airports":["626144391e911989f7b3808c"],"geometry":{"type":"Point","coordinates":[12.94472,47.82417]},"elevation":{"value":447,"unit":0,"referenceDatum":1},"createdAt":"2022-06-06T08:40:49.289Z","updatedAt":"2023-03-05T08:33:02.034Z","createdBy":"openaip-system","updatedBy":"OPONcQnzWGOLiJSceNaf8pvx1fA2","elevationGeoid":{"geoidHeight":45.500853303936026,"hae":492.500853303936},"__v":2},{"_id":"62b0006fd9e5b540b6fbef1a","name":"NAAB","compulsory":true,"country":"DE","airports":["62614a725e9ded57104440bd"],"geometry":{"type":"Point","coordinates":[11.9842475,49.1762425]},"elevation":{"value":340,"unit":0,"referenceDatum":1},"createdAt":"2022-06-20T05:06:55.324Z","updatedAt":"2022-06-20T05:07:02.549Z","createdBy":"eBT9qSrxquPVguazo7MwJzzaf2p1","updatedBy":"eBT9qSrxquPVguazo7MwJzzaf2p1","elevationGeoid":{"geoidHeight":46.23397074394529,"hae":386.2339707439453},"__v":0},{"_id":"62b477bd1573c2563faac680","name":"ECHO","compulsory":true,"country":"DE","airports":["62614a82cb27f425094461f6"],"geometry":{"type":"Point","coordinates":[10.956966666666666,48.169125]},"elevation":{"value":562,"unit":0,"referenceDatum":1},"createdAt":"2022-06-23T14:25:01.429Z","updatedAt":"2022-06-23T14:25:08.279Z","createdBy":"eBT9qSrxquPVguazo7MwJzzaf2p1","updatedBy":"eBT9qSrxquPVguazo7MwJzzaf2p1","elevationGeoid":{"geoidHeight":46.481169300000005,"hae":608.4811693},"__v":0},{"_id":"629cc95cf4b4089a578e4914","name":"NOVEMBER2","compulsory":false,"country":"DE","airports":["62614a3bcb27f42509444078"],"geometry":{"type":"Point","coordinates":[10.911666666666667,48.483333333333334]},"elevation":{"value":446,"unit":0,"referenceDatum":1},"createdAt":"2022-06-05T15:18:52.497Z","updatedAt":"2022-06-05T19:42:45.559Z","createdBy":"openaip-system","updatedBy":"OPONcQnzWGOLiJSceNaf8pvx1fA2","elevationGeoid":{"geoidHeight":46.59984,"hae":492.59984},"__v":0},{"_id":"62affec5d9e5b540b6fbece3","name":"TANGO","compulsory":true,"country":"DE","airports":["62614a725e9ded57104440bd"],"geometry":{"type":"Point","coordinates":[11.848218333333334,49.17373333333333]},"elevation":{"value":528,"unit":0,"referenceDatum":1},"createdAt":"2022-06-20T04:59:49.080Z","updatedAt":"2022-06-20T04:59:56.354Z","createdBy":"eBT9qSrxquPVguazo7MwJzzaf2p1","updatedBy":"eBT9qSrxquPVguazo7MwJzzaf2p1","elevationGeoid":{"geoidHeight":46.33753730649599,"hae":574.337537306496},"__v":0},{"_id":"629dbda01985b861f0e4447a","name":"KUFSTEIN","compulsory":false,"country":"AT","airports":["626144351e911989f7b37eff"],"geometry":{"type":"Point","coordinates":[12.188333,47.576667]},"elevation":{"value":904,"unit":0,"referenceDatum":1},"createdAt":"2022-06-06T08:41:04.524Z","updatedAt":"2022-07-25T17:21:11.353Z","createdBy":"openaip-system","updatedBy":"OPONcQnzWGOLiJSceNaf8pvx1fA2","elevationGeoid":{"geoidHeight":47.26106390712053,"hae":951.2610639071205},"__v":0},{"_id":"629cc95bf4b4089a578e490b","name":"NOVEMBER1","compulsory":true,"country":"DE","airports":["62614a3bcb27f42509444078"],"geometry":{"type":"Point","coordinates":[10.895,48.51833333333333]},"elevation":{"value":435,"unit":0,"referenceDatum":1},"createdAt":"2022-06-05T15:18:51.287Z","updatedAt":"2022-06-05T19:42:43.047Z","createdBy":"openaip-system","updatedBy":"OPONcQnzWGOLiJSceNaf8pvx1fA2","elevationGeoid":{"geoidHeight":46.66163999999998,"hae":481.66164},"__v":0},{"_id":"629cc964f4b4089a578e4957","name":"LIMA","compulsory":true,"country":"DE","airports":["62614a3bcb27f42509444078"],"geometry":{"type":"Point","coordinates":[10.876666666666667,48.49]},"elevation":{"value":443,"unit":0,"referenceDatum":1},"createdAt":"2022-06-05T15:19:00.289Z","updatedAt":"2022-06-05T19:43:03.186Z","createdBy":"openaip-system","updatedBy":"OPONcQnzWGOLiJSceNaf8pvx1fA2","elevationGeoid":{"geoidHeight":46.640975999999995,"hae":489.640976},"__v":0},{"_id":"629dbd901985b861f0e443c6","name":"WHISKEY","compulsory":true,"country":"AT","airports":["626144391e911989f7b3808c"],"geometry":{"type":"Point","coordinates":[12.93472,47.77139]},"elevation":{"value":476,"unit":0,"referenceDatum":1},"createdAt":"2022-06-06T08:40:48.331Z","updatedAt":"2023-03-05T08:32:37.834Z","createdBy":"openaip-system","updatedBy":"OPONcQnzWGOLiJSceNaf8pvx1fA2","elevationGeoid":{"geoidHeight":45.88050882931202,"hae":521.880508829312},"__v":2},{"_id":"629dbd9e1985b861f0e44464","name":"GRIESENAU","compulsory":true,"country":"AT","airports":["6261443b1e911989f7b38119"],"geometry":{"type":"Point","coordinates":[12.39,47.581667]},"elevation":{"value":717,"unit":0,"referenceDatum":1},"createdAt":"2022-06-06T08:41:02.490Z","updatedAt":"2022-07-20T18:04:19.411Z","createdBy":"openaip-system","updatedBy":"OPONcQnzWGOLiJSceNaf8pvx1fA2","elevationGeoid":{"geoidHeight":47.31806917776001,"hae":764.31806917776},"__v":0},{"_id":"629dbd921985b861f0e443dc","name":"MARIA PLAIN","compulsory":false,"country":"AT","airports":["626144391e911989f7b3808c"],"geometry":{"type":"Point","coordinates":[13.03972,47.840559999999996]},"elevation":{"value":451,"unit":0,"referenceDatum":1},"createdAt":"2022-06-06T08:40:50.314Z","updatedAt":"2022-07-20T05:24:23.506Z","createdBy":"openaip-system","updatedBy":"OPONcQnzWGOLiJSceNaf8pvx1fA2","elevationGeoid":{"geoidHeight":45.50472043207682,"hae":496.50472043207685},"__v":0},{"_id":"62b0018dd9e5b540b6fbf4ee","name":"PARSBERG","compulsory":true,"country":"DE","airports":["62614a725e9ded57104440bd"],"geometry":{"type":"Point","coordinates":[11.733483333333334,49.18032777777778]},"elevation":{"value":498,"unit":0,"referenceDatum":1},"createdAt":"2022-06-20T05:11:41.161Z","updatedAt":"2022-06-20T05:11:48.016Z","createdBy":"eBT9qSrxquPVguazo7MwJzzaf2p1","updatedBy":"eBT9qSrxquPVguazo7MwJzzaf2p1","elevationGeoid":{"geoidHeight":46.41414492524001,"hae":544.41414492524},"__v":0},{"_id":"62afff8dd9e5b540b6fbee2f","name":"BURGLENGENFELD","compulsory":true,"country":"DE","airports":["62614a725e9ded57104440bd"],"geometry":{"type":"Point","coordinates":[12.024119444444445,49.21751666666667]},"elevation":{"value":370,"unit":0,"referenceDatum":1},"createdAt":"2022-06-20T05:03:09.364Z","updatedAt":"2022-06-20T05:03:16.334Z","createdBy":"eBT9qSrxquPVguazo7MwJzzaf2p1","updatedBy":"eBT9qSrxquPVguazo7MwJzzaf2p1","elevationGeoid":{"geoidHeight":46.263680456619994,"hae":416.26368045662},"__v":0},{"_id":"62b000dbd9e5b540b6fbefb7","name":"COD","compulsory":true,"country":"DE","airports":["62614a725e9ded57104440bd"],"geometry":{"type":"Point","coordinates":[11.9339,49.21382777777778]},"elevation":{"value":450,"unit":0,"referenceDatum":1},"createdAt":"2022-06-20T05:08:43.468Z","updatedAt":"2022-06-20T05:08:50.654Z","createdBy":"eBT9qSrxquPVguazo7MwJzzaf2p1","updatedBy":"eBT9qSrxquPVguazo7MwJzzaf2p1","elevationGeoid":{"geoidHeight":46.297778165520015,"hae":496.29777816552},"__v":0},{"_id":"629dbd951985b861f0e443fd","name":"SEEKIRCHEN","compulsory":true,"country":"AT","airports":["626144391e911989f7b3808c"],"geometry":{"type":"Point","coordinates":[13.13111,47.88778]},"elevation":{"value":517,"unit":0,"referenceDatum":1},"createdAt":"2022-06-06T08:40:53.390Z","updatedAt":"2022-07-20T05:24:30.961Z","createdBy":"openaip-system","updatedBy":"OPONcQnzWGOLiJSceNaf8pvx1fA2","elevationGeoid":{"geoidHeight":45.45738359949118,"hae":562.4573835994912},"__v":0},{"_id":"62de9b69bf705b00d6ce71f0","name":"EIBERG","compulsory":false,"country":"AT","airports":["626144351e911989f7b37eff"],"geometry":{"type":"Point","coordinates":[12.173333,47.541667]},"elevation":{"value":644,"unit":0,"referenceDatum":1},"createdAt":"2022-07-25T13:32:25.742Z","updatedAt":"2022-07-25T17:21:06.303Z","createdBy":"RHkPBTJIPyQQsJax00yVAYxBiPB2","updatedBy":"OPONcQnzWGOLiJSceNaf8pvx1fA2","elevationGeoid":{"geoidHeight":47.47733747544052,"hae":691.4773374754405},"__v":0},{"_id":"629dbd9d1985b861f0e44459","name":"ERPENDORF","compulsory":true,"country":"AT","airports":["6261443b1e911989f7b38119"],"geometry":{"type":"Point","coordinates":[12.48,47.576667]},"elevation":{"value":631,"unit":0,"referenceDatum":1},"createdAt":"2022-06-06T08:41:01.448Z","updatedAt":"2022-07-20T18:04:16.819Z","createdBy":"openaip-system","updatedBy":"OPONcQnzWGOLiJSceNaf8pvx1fA2","elevationGeoid":{"geoidHeight":47.38763802,"hae":678.3876380199999},"__v":0},{"_id":"629dbda41985b861f0e444ac","name":"KLÄRWERK","compulsory":false,"country":"AT","airports":["626144351e911989f7b37eff"],"geometry":{"type":"Point","coordinates":[12.11,47.536667]},"elevation":{"value":494,"unit":0,"referenceDatum":1},"createdAt":"2022-06-06T08:41:08.610Z","updatedAt":"2022-07-25T17:20:58.798Z","createdBy":"openaip-system","updatedBy":"OPONcQnzWGOLiJSceNaf8pvx1fA2","elevationGeoid":{"geoidHeight":47.512380627839974,"hae":541.51238062784},"__v":0},{"_id":"629cc963f4b4089a578e494a","name":"WHISKEY2","compulsory":false,"country":"DE","airports":["62614a3bcb27f42509444078"],"geometry":{"type":"Point","coordinates":[10.82,48.42166666666667]},"elevation":{"value":451,"unit":0,"referenceDatum":1},"createdAt":"2022-06-05T15:18:59.049Z","updatedAt":"2022-06-05T19:43:00.665Z","createdBy":"openaip-system","updatedBy":"OPONcQnzWGOLiJSceNaf8pvx1fA2","elevationGeoid":{"geoidHeight":46.63106160000001,"hae":497.6310616},"__v":0},{"_id":"629dbd971985b861f0e44413","name":"LENGAU","compulsory":false,"country":"AT","airports":["626144391e911989f7b3808c"],"geometry":{"type":"Point","coordinates":[13.26528,48.0025]},"elevation":{"value":603,"unit":0,"referenceDatum":1},"createdAt":"2022-06-06T08:40:55.392Z","updatedAt":"2022-07-20T05:24:35.930Z","createdBy":"openaip-system","updatedBy":"OPONcQnzWGOLiJSceNaf8pvx1fA2","elevationGeoid":{"geoidHeight":45.161785190399996,"hae":648.1617851904},"__v":0},{"_id":"629dbd941985b861f0e443f2","name":"EUGENDORF","compulsory":true,"country":"AT","airports":["626144391e911989f7b3808c"],"geometry":{"type":"Point","coordinates":[13.12611,47.85694]},"elevation":{"value":567,"unit":0,"referenceDatum":1},"createdAt":"2022-06-06T08:40:52.387Z","updatedAt":"2022-07-20T05:24:28.489Z","createdBy":"openaip-system","updatedBy":"OPONcQnzWGOLiJSceNaf8pvx1fA2","elevationGeoid":{"geoidHeight":45.579271123017605,"hae":612.5792711230176},"__v":0},{"_id":"629dbda31985b861f0e4449b","name":"UMSPANNWERK","compulsory":false,"country":"AT","airports":["626144351e911989f7b37eff"],"geometry":{"type":"Point","coordinates":[12.076667,47.523333]},"elevation":{"value":496,"unit":0,"referenceDatum":1},"createdAt":"2022-06-06T08:41:07.550Z","updatedAt":"2022-07-25T17:21:01.280Z","createdBy":"openaip-system","updatedBy":"OPONcQnzWGOLiJSceNaf8pvx1fA2","elevationGeoid":{"geoidHeight":47.59037382432237,"hae":543.5903738243223},"__v":0},{"_id":"629dbd961985b861f0e44408","name":"STRASSWALCHEN","compulsory":false,"country":"AT","airports":["626144391e911989f7b3808c"],"geometry":{"type":"Point","coordinates":[13.27361,47.98222]},"elevation":{"value":566,"unit":0,"referenceDatum":1},"createdAt":"2022-06-06T08:40:54.397Z","updatedAt":"2022-07-20T05:24:33.447Z","createdBy":"openaip-system","updatedBy":"OPONcQnzWGOLiJSceNaf8pvx1fA2","elevationGeoid":{"geoidHeight":45.23382643225921,"hae":611.2338264322592},"__v":0},{"_id":"629dbd9c1985b861f0e4444e","name":"ELLMAU","compulsory":true,"country":"AT","airports":["6261443b1e911989f7b38119"],"geometry":{"type":"Point","coordinates":[12.303333,47.52]},"elevation":{"value":761,"unit":0,"referenceDatum":1},"createdAt":"2022-06-06T08:41:00.452Z","updatedAt":"2022-07-20T18:04:14.278Z","createdBy":"openaip-system","updatedBy":"OPONcQnzWGOLiJSceNaf8pvx1fA2","elevationGeoid":{"geoidHeight":47.70929277792001,"hae":808.70929277792},"__v":0},{"_id":"629dbd9f1985b861f0e4446f","name":"SÖLL","compulsory":false,"country":"AT","airports":["626144351e911989f7b37eff"],"geometry":{"type":"Point","coordinates":[12.208333,47.511667]},"elevation":{"value":669,"unit":0,"referenceDatum":1},"createdAt":"2022-06-06T08:41:03.470Z","updatedAt":"2022-07-25T17:21:08.810Z","createdBy":"openaip-system","updatedBy":"OPONcQnzWGOLiJSceNaf8pvx1fA2","elevationGeoid":{"geoidHeight":47.714667372480505,"hae":716.7146673724806},"__v":0},{"_id":"629dbda21985b861f0e44490","name":"WÖRGL","compulsory":false,"country":"AT","airports":["626144351e911989f7b37eff"],"geometry":{"type":"Point","coordinates":[12.06,47.495]},"elevation":{"value":496,"unit":0,"referenceDatum":1},"createdAt":"2022-06-06T08:41:06.564Z","updatedAt":"2022-07-25T17:21:03.823Z","createdBy":"openaip-system","updatedBy":"OPONcQnzWGOLiJSceNaf8pvx1fA2","elevationGeoid":{"geoidHeight":47.75660160000004,"hae":543.7566016000001},"__v":0},{"_id":"629dbd8f1985b861f0e443bb","name":"GLASENBACH","compulsory":false,"country":"AT","airports":["626144391e911989f7b3808c"],"geometry":{"type":"Point","coordinates":[13.07778,47.77083]},"elevation":{"value":425,"unit":0,"referenceDatum":1},"createdAt":"2022-06-06T08:40:47.302Z","updatedAt":"2022-07-20T05:24:16.015Z","createdBy":"openaip-system","updatedBy":"OPONcQnzWGOLiJSceNaf8pvx1fA2","elevationGeoid":{"geoidHeight":45.98532383195521,"hae":470.9853238319552},"__v":0},{"_id":"629dbd8e1985b861f0e443b0","name":"GROEDIG","compulsory":false,"country":"AT","airports":["626144391e911989f7b3808c"],"geometry":{"type":"Point","coordinates":[13.053333,47.74]},"elevation":{"value":447,"unit":0,"referenceDatum":1},"createdAt":"2022-06-06T08:40:46.339Z","updatedAt":"2022-07-20T05:24:13.466Z","createdBy":"openaip-system","updatedBy":"OPONcQnzWGOLiJSceNaf8pvx1fA2","elevationGeoid":{"geoidHeight":46.158143637600006,"hae":493.1581436376},"__v":0},{"_id":"62b478571573c2563faac787","name":"WHISKEY","compulsory":true,"country":"DE","airports":["62614a82cb27f425094461f6"],"geometry":{"type":"Point","coordinates":[10.760277777777778,48.21873333333333]},"elevation":{"value":532,"unit":0,"referenceDatum":1},"createdAt":"2022-06-23T14:27:35.039Z","updatedAt":"2022-06-23T14:41:39.209Z","createdBy":"eBT9qSrxquPVguazo7MwJzzaf2p1","updatedBy":"eBT9qSrxquPVguazo7MwJzzaf2p1","elevationGeoid":{"geoidHeight":46.608555744,"hae":578.608555744},"__v":0},{"_id":"629cca4af4b4089a578e514a","name":"ECHO","compulsory":true,"country":"DE","airports":["62614a54cb27f42509444fe0"],"geometry":{"type":"Point","coordinates":[10.8,48.693333333333335]},"elevation":{"value":399,"unit":0,"referenceDatum":1},"createdAt":"2022-06-05T15:22:50.698Z","updatedAt":"2022-06-05T19:52:10.264Z","createdBy":"openaip-system","updatedBy":"OPONcQnzWGOLiJSceNaf8pvx1fA2","elevationGeoid":{"geoidHeight":47.04984000000002,"hae":446.04984},"__v":0},{"_id":"629dbd8d1985b861f0e443a5","name":"SIERRA","compulsory":false,"country":"AT","airports":["626144391e911989f7b3808c"],"geometry":{"type":"Point","coordinates":[13.07917,47.73056]},"elevation":{"value":429,"unit":0,"referenceDatum":1},"createdAt":"2022-06-06T08:40:45.305Z","updatedAt":"2022-07-20T05:24:10.981Z","createdBy":"openaip-system","updatedBy":"OPONcQnzWGOLiJSceNaf8pvx1fA2","elevationGeoid":{"geoidHeight":46.25182220025604,"hae":475.251822200256},"__v":0},{"_id":"629cc962f4b4089a578e4941","name":"WHISKEY1","compulsory":true,"country":"DE","airports":["62614a3bcb27f42509444078"],"geometry":{"type":"Point","coordinates":[10.72,48.416666666666664]},"elevation":{"value":496,"unit":0,"referenceDatum":1},"createdAt":"2022-06-05T15:18:58.031Z","updatedAt":"2022-06-05T19:42:58.159Z","createdBy":"openaip-system","updatedBy":"OPONcQnzWGOLiJSceNaf8pvx1fA2","elevationGeoid":{"geoidHeight":46.71816000000001,"hae":542.71816},"__v":0},{"_id":"62b001ebd9e5b540b6fbf57c","name":"PLANT","compulsory":true,"country":"DE","airports":["62614a725e9ded57104440bd"],"geometry":{"type":"Point","coordinates":[11.451648333333333,49.2057625]},"elevation":{"value":412,"unit":0,"referenceDatum":1},"createdAt":"2022-06-20T05:13:15.907Z","updatedAt":"2022-06-20T05:13:22.637Z","createdBy":"eBT9qSrxquPVguazo7MwJzzaf2p1","updatedBy":"eBT9qSrxquPVguazo7MwJzzaf2p1","elevationGeoid":{"geoidHeight":46.52017916808302,"hae":458.520179168083},"__v":0},{"_id":"629dbd9a1985b861f0e44434","name":"SCHWARZSEE","compulsory":true,"country":"AT","airports":["6261443b1e911989f7b38119"],"geometry":{"type":"Point","coordinates":[12.375,47.46]},"elevation":{"value":780,"unit":0,"referenceDatum":1},"createdAt":"2022-06-06T08:40:58.421Z","updatedAt":"2022-07-20T18:04:09.199Z","createdBy":"openaip-system","updatedBy":"OPONcQnzWGOLiJSceNaf8pvx1fA2","elevationGeoid":{"geoidHeight":48.13968000000003,"hae":828.13968},"__v":0},{"_id":"629dbd9b1985b861f0e4443f","name":"FIEBERBRUNN","compulsory":true,"country":"AT","airports":["6261443b1e911989f7b38119"],"geometry":{"type":"Point","coordinates":[12.536667,47.476667]},"elevation":{"value":829,"unit":0,"referenceDatum":1},"createdAt":"2022-06-06T08:40:59.395Z","updatedAt":"2022-07-20T18:04:11.700Z","createdBy":"openaip-system","updatedBy":"OPONcQnzWGOLiJSceNaf8pvx1fA2","elevationGeoid":{"geoidHeight":48.069165566400955,"hae":877.0691655664009},"__v":0},{"_id":"62aecedcd9e5b540b6f7d8b6","name":"ECHO","compulsory":true,"country":"DE","airports":["62614a38c982787750408ed1"],"geometry":{"type":"Point","coordinates":[10.929268888888888,47.83795]},"elevation":{"value":686,"unit":0,"referenceDatum":1},"createdAt":"2022-06-19T07:23:08.032Z","updatedAt":"2022-06-19T07:23:49.532Z","createdBy":"eBT9qSrxquPVguazo7MwJzzaf2p1","updatedBy":"eBT9qSrxquPVguazo7MwJzzaf2p1","elevationGeoid":{"geoidHeight":46.884068844848,"hae":732.884068844848},"__v":0},{"_id":"629dbd8b1985b861f0e4438f","name":"HALLEIN","compulsory":true,"country":"AT","airports":["626144391e911989f7b3808c"],"geometry":{"type":"Point","coordinates":[13.098611,47.686111]},"elevation":{"value":440,"unit":0,"referenceDatum":1},"createdAt":"2022-06-06T08:40:43.312Z","updatedAt":"2022-07-20T05:24:05.796Z","createdBy":"openaip-system","updatedBy":"OPONcQnzWGOLiJSceNaf8pvx1fA2","elevationGeoid":{"geoidHeight":46.580385601000216,"hae":486.5803856010002},"__v":0},{"_id":"62aecf9cd9e5b540b6f7d960","name":"NOVEMBER","compulsory":true,"country":"DE","airports":["62614a38c982787750408ed1"],"geometry":{"type":"Point","coordinates":[10.87253638888889,47.88368805555555]},"elevation":{"value":725,"unit":0,"referenceDatum":1},"createdAt":"2022-06-19T07:26:20.192Z","updatedAt":"2022-06-19T07:26:28.890Z","createdBy":"eBT9qSrxquPVguazo7MwJzzaf2p1","updatedBy":"eBT9qSrxquPVguazo7MwJzzaf2p1","elevationGeoid":{"geoidHeight":46.83777670738118,"hae":771.8377767073812},"__v":0},{"_id":"629dbd8c1985b861f0e4439a","name":"ADNET","compulsory":true,"country":"AT","airports":["626144391e911989f7b3808c"],"geometry":{"type":"Point","coordinates":[13.12361,47.68917]},"elevation":{"value":510,"unit":0,"referenceDatum":1},"createdAt":"2022-06-06T08:40:44.339Z","updatedAt":"2022-07-20T05:24:08.283Z","createdBy":"openaip-system","updatedBy":"OPONcQnzWGOLiJSceNaf8pvx1fA2","elevationGeoid":{"geoidHeight":46.592337057547184,"hae":556.5923370575472},"__v":0},{"_id":"629cca49f4b4089a578e5141","name":"WHISKEY","compulsory":true,"country":"DE","airports":["62614a54cb27f42509444fe0"],"geometry":{"type":"Point","coordinates":[10.713333333333333,48.7]},"elevation":{"value":510,"unit":0,"referenceDatum":1},"createdAt":"2022-06-05T15:22:49.696Z","updatedAt":"2022-06-05T19:52:07.755Z","createdBy":"openaip-system","updatedBy":"OPONcQnzWGOLiJSceNaf8pvx1fA2","elevationGeoid":{"geoidHeight":47.14356000000001,"hae":557.14356},"__v":0},{"_id":"629dbd7e1985b861f0e44309","name":"MIKE 1","compulsory":true,"country":"AT","airports":["626144331e911989f7b37e6c"],"geometry":{"type":"Point","coordinates":[11.803611,47.402778]},"elevation":{"value":545,"unit":0,"referenceDatum":1},"createdAt":"2022-06-06T08:40:30.731Z","updatedAt":"2022-07-26T05:41:17.002Z","createdBy":"openaip-system","updatedBy":"OPONcQnzWGOLiJSceNaf8pvx1fA2","elevationGeoid":{"geoidHeight":48.536928851840486,"hae":593.5369288518405},"__v":0},{"_id":"62affff8d9e5b540b6fbeeb8","name":"FREIHOLS QUARRY","compulsory":true,"country":"DE","airports":["62614a725e9ded57104440bd"],"geometry":{"type":"Point","coordinates":[12.003636111111112,49.396925]},"elevation":{"value":386,"unit":0,"referenceDatum":1},"createdAt":"2022-06-20T05:04:56.780Z","updatedAt":"2022-06-20T05:05:04.969Z","createdBy":"eBT9qSrxquPVguazo7MwJzzaf2p1","updatedBy":"eBT9qSrxquPVguazo7MwJzzaf2p1","elevationGeoid":{"geoidHeight":46.476174848949995,"hae":432.47617484895},"__v":0},{"_id":"62aecff9d9e5b540b6f7d9c3","name":"SIERRA","compulsory":true,"country":"DE","airports":["62614a38c982787750408ed1"],"geometry":{"type":"Point","coordinates":[10.858333333333333,47.805]},"elevation":{"value":735,"unit":0,"referenceDatum":1},"createdAt":"2022-06-19T07:27:53.781Z","updatedAt":"2022-06-19T07:28:02.934Z","createdBy":"eBT9qSrxquPVguazo7MwJzzaf2p1","updatedBy":"eBT9qSrxquPVguazo7MwJzzaf2p1","elevationGeoid":{"geoidHeight":47.06913,"hae":782.06913},"__v":0},{"_id":"62aed06fd9e5b540b6f7da2c","name":"WHISKEY","compulsory":true,"country":"DE","airports":["62614a38c982787750408ed1"],"geometry":{"type":"Point","coordinates":[10.774691666666667,47.835205555555554]},"elevation":{"value":839,"unit":0,"referenceDatum":1},"createdAt":"2022-06-19T07:29:51.394Z","updatedAt":"2022-06-19T07:29:59.072Z","createdBy":"eBT9qSrxquPVguazo7MwJzzaf2p1","updatedBy":"eBT9qSrxquPVguazo7MwJzzaf2p1","elevationGeoid":{"geoidHeight":47.02515057062004,"hae":886.0251505706201},"__v":0},{"_id":"629dbd891985b861f0e44379","name":"PASS LUEG","compulsory":false,"country":"AT","airports":["626144391e911989f7b3808c"],"geometry":{"type":"Point","coordinates":[13.19528,47.57528]},"elevation":{"value":556,"unit":0,"referenceDatum":1},"createdAt":"2022-06-06T08:40:41.301Z","updatedAt":"2022-07-20T05:24:00.779Z","createdBy":"openaip-system","updatedBy":"OPONcQnzWGOLiJSceNaf8pvx1fA2","elevationGeoid":{"geoidHeight":47.41515737978878,"hae":603.4151573797888},"__v":0},{"_id":"629dbd811985b861f0e4432a","name":"FOXTROT","compulsory":true,"country":"AT","airports":["626144331e911989f7b37e6c"],"geometry":{"type":"Point","coordinates":[11.873611,47.289444]},"elevation":{"value":549,"unit":0,"referenceDatum":1},"createdAt":"2022-06-06T08:40:33.726Z","updatedAt":"2022-07-26T05:41:29.444Z","createdBy":"openaip-system","updatedBy":"OPONcQnzWGOLiJSceNaf8pvx1fA2","elevationGeoid":{"geoidHeight":49.32044363362766,"hae":598.3204436336276},"__v":0},{"_id":"629dbd7f1985b861f0e44314","name":"MIKE 2","compulsory":false,"country":"AT","airports":["626144331e911989f7b37e6c"],"geometry":{"type":"Point","coordinates":[11.665556,47.298889]},"elevation":{"value":871,"unit":0,"referenceDatum":1},"createdAt":"2022-06-06T08:40:31.778Z","updatedAt":"2022-07-26T05:41:14.515Z","createdBy":"openaip-system","updatedBy":"OPONcQnzWGOLiJSceNaf8pvx1fA2","elevationGeoid":{"geoidHeight":49.3703023813317,"hae":920.3703023813317},"__v":0},{"_id":"629dbd841985b861f0e44342","name":"NOVEMBER","compulsory":true,"country":"AT","airports":["6261443ef2228b5341bf28a3"],"geometry":{"type":"Point","coordinates":[12.81833,47.36333]},"elevation":{"value":751,"unit":0,"referenceDatum":1},"createdAt":"2022-06-06T08:40:36.330Z","updatedAt":"2022-07-20T05:23:48.006Z","createdBy":"openaip-system","updatedBy":"OPONcQnzWGOLiJSceNaf8pvx1fA2","elevationGeoid":{"geoidHeight":48.47251067288161,"hae":799.4725106728816},"__v":0},{"_id":"629dbd8a1985b861f0e44384","name":"VOGLAU","compulsory":false,"country":"AT","airports":["626144391e911989f7b3808c"],"geometry":{"type":"Point","coordinates":[13.31472,47.59611]},"elevation":{"value":573,"unit":0,"referenceDatum":1},"createdAt":"2022-06-06T08:40:42.350Z","updatedAt":"2022-07-20T05:24:03.320Z","createdBy":"openaip-system","updatedBy":"OPONcQnzWGOLiJSceNaf8pvx1fA2","elevationGeoid":{"geoidHeight":47.3395787600256,"hae":620.3395787600256},"__v":0},{"_id":"629dbd7a1985b861f0e442dd","name":"NOVEMBER 1","compulsory":false,"country":"AT","airports":["626144331e911989f7b37e6c"],"geometry":{"type":"Point","coordinates":[11.258611,47.386111]},"elevation":{"value":967,"unit":0,"referenceDatum":1},"createdAt":"2022-06-06T08:40:26.735Z","updatedAt":"2022-07-26T05:41:09.349Z","createdBy":"openaip-system","updatedBy":"OPONcQnzWGOLiJSceNaf8pvx1fA2","elevationGeoid":{"geoidHeight":49.32656984450679,"hae":1016.3265698445068},"__v":0},{"_id":"629dbda71985b861f0e444c2","name":"AUTOBAHN REGAU","compulsory":false,"country":"AT","airports":["626144321e911989f7b37db5"],"geometry":{"type":"Point","coordinates":[13.721667,47.955]},"elevation":{"value":484,"unit":0,"referenceDatum":1},"createdAt":"2022-06-06T08:41:11.020Z","updatedAt":"2022-07-20T05:24:46.027Z","createdBy":"openaip-system","updatedBy":"OPONcQnzWGOLiJSceNaf8pvx1fA2","elevationGeoid":{"geoidHeight":45.55945828920002,"hae":529.5594582892},"__v":0},{"_id":"629dbd851985b861f0e4434d","name":"LAKE","compulsory":true,"country":"AT","airports":["6261443ef2228b5341bf28a3"],"geometry":{"type":"Point","coordinates":[12.80667,47.32667]},"elevation":{"value":745,"unit":0,"referenceDatum":1},"createdAt":"2022-06-06T08:40:37.298Z","updatedAt":"2022-07-20T05:23:50.510Z","createdBy":"openaip-system","updatedBy":"OPONcQnzWGOLiJSceNaf8pvx1fA2","elevationGeoid":{"geoidHeight":48.63366122405762,"hae":793.6336612240576},"__v":0},{"_id":"629dbd881985b861f0e4436e","name":"WHISKEY","compulsory":true,"country":"AT","airports":["6261443ef2228b5341bf28a3"],"geometry":{"type":"Point","coordinates":[12.66667,47.28]},"elevation":{"value":757,"unit":0,"referenceDatum":1},"createdAt":"2022-06-06T08:40:40.329Z","updatedAt":"2022-07-20T05:23:58.318Z","createdBy":"openaip-system","updatedBy":"OPONcQnzWGOLiJSceNaf8pvx1fA2","elevationGeoid":{"geoidHeight":49.09547390399999,"hae":806.095473904},"__v":0},{"_id":"629cca20f4b4089a578e4fd7","name":"FOXTROT","compulsory":true,"country":"DE","airports":["62614a955e9ded5710444e03"],"geometry":{"type":"Point","coordinates":[11.198333333333334,49.405]},"elevation":{"value":382,"unit":0,"referenceDatum":1},"createdAt":"2022-06-05T15:22:08.057Z","updatedAt":"2022-06-05T19:50:24.696Z","createdBy":"openaip-system","updatedBy":"OPONcQnzWGOLiJSceNaf8pvx1fA2","elevationGeoid":{"geoidHeight":46.6480584,"hae":428.64805839999997},"__v":0},{"_id":"62aff99bd9e5b540b6fbdc54","name":"SIERRA1","compulsory":true,"country":"DE","airports":["62614a655e9ded5710443c3d"],"geometry":{"type":"Point","coordinates":[11.947833333333334,49.57183333333333]},"elevation":{"value":425,"unit":0,"referenceDatum":1},"createdAt":"2022-06-20T04:37:47.122Z","updatedAt":"2022-06-20T04:38:43.348Z","createdBy":"eBT9qSrxquPVguazo7MwJzzaf2p1","updatedBy":"eBT9qSrxquPVguazo7MwJzzaf2p1","elevationGeoid":{"geoidHeight":46.74615734399998,"hae":471.746157344},"__v":0},{"_id":"629dbda91985b861f0e444d8","name":"AUTOBAHN STEYRERMUEHL","compulsory":false,"country":"AT","airports":["626144321e911989f7b37db5"],"geometry":{"type":"Point","coordinates":[13.798333,48]},"elevation":{"value":419,"unit":0,"referenceDatum":1},"createdAt":"2022-06-06T08:41:13.238Z","updatedAt":"2022-07-20T05:24:51.089Z","createdBy":"openaip-system","updatedBy":"OPONcQnzWGOLiJSceNaf8pvx1fA2","elevationGeoid":{"geoidHeight":45.38357979599999,"hae":464.383579796},"__v":0},{"_id":"62affaa8d9e5b540b6fbde17","name":"WHISKEY","compulsory":false,"country":"DE","airports":["62614a655e9ded5710443c3d"],"geometry":{"type":"Point","coordinates":[11.612166666666667,49.534]},"elevation":{"value":486,"unit":0,"referenceDatum":1},"createdAt":"2022-06-20T04:42:16.025Z","updatedAt":"2022-06-20T04:42:22.367Z","createdBy":"eBT9qSrxquPVguazo7MwJzzaf2p1","updatedBy":"eBT9qSrxquPVguazo7MwJzzaf2p1","elevationGeoid":{"geoidHeight":46.68887150399999,"hae":532.688871504},"__v":0},{"_id":"629dbd871985b861f0e44363","name":"SIERRA","compulsory":true,"country":"AT","airports":["6261443ef2228b5341bf28a3"],"geometry":{"type":"Point","coordinates":[12.78933,47.28392]},"elevation":{"value":751,"unit":0,"referenceDatum":1},"createdAt":"2022-06-06T08:40:39.281Z","updatedAt":"2022-07-20T05:23:55.796Z","createdBy":"openaip-system","updatedBy":"OPONcQnzWGOLiJSceNaf8pvx1fA2","elevationGeoid":{"geoidHeight":48.87233375754238,"hae":799.8723337575424},"__v":0},{"_id":"629dbda51985b861f0e444b7","name":"STEINBRUCH","compulsory":false,"country":"AT","airports":["626144321e911989f7b37db5"],"geometry":{"type":"Point","coordinates":[13.761667,47.918333]},"elevation":{"value":691,"unit":0,"referenceDatum":1},"createdAt":"2022-06-06T08:41:09.954Z","updatedAt":"2022-07-20T05:24:43.491Z","createdBy":"openaip-system","updatedBy":"OPONcQnzWGOLiJSceNaf8pvx1fA2","elevationGeoid":{"geoidHeight":45.784796109600734,"hae":736.7847961096007},"__v":0},{"_id":"62aef0b7d9e5b540b6f801b5","name":"SPECKHEIM","compulsory":true,"country":"DE","airports":["62614a39cb27f42509443f31"],"geometry":{"type":"Point","coordinates":[10.810716666666666,49.23222222222222]},"elevation":{"value":435,"unit":0,"referenceDatum":1},"createdAt":"2022-06-19T09:47:35.196Z","updatedAt":"2022-06-19T09:47:42.939Z","createdBy":"eBT9qSrxquPVguazo7MwJzzaf2p1","updatedBy":"eBT9qSrxquPVguazo7MwJzzaf2p1","elevationGeoid":{"geoidHeight":47.21115252000001,"hae":482.21115252000004},"__v":0},{"_id":"629dbda81985b861f0e444cd","name":"TRAUNBRUECKE","compulsory":true,"country":"AT","airports":["626144321e911989f7b37db5"],"geometry":{"type":"Point","coordinates":[13.798333,47.938333]},"elevation":{"value":448,"unit":0,"referenceDatum":1},"createdAt":"2022-06-06T08:41:12.048Z","updatedAt":"2022-07-20T05:24:48.552Z","createdBy":"openaip-system","updatedBy":"OPONcQnzWGOLiJSceNaf8pvx1fA2","elevationGeoid":{"geoidHeight":45.718135471199275,"hae":493.7181354711993},"__v":0},{"_id":"629dbd861985b861f0e44358","name":"ECHO","compulsory":true,"country":"AT","airports":["6261443ef2228b5341bf28a3"],"geometry":{"type":"Point","coordinates":[12.875,47.28333]},"elevation":{"value":747,"unit":0,"referenceDatum":1},"createdAt":"2022-06-06T08:40:38.313Z","updatedAt":"2022-07-20T05:23:53.215Z","createdBy":"openaip-system","updatedBy":"OPONcQnzWGOLiJSceNaf8pvx1fA2","elevationGeoid":{"geoidHeight":48.80341506000002,"hae":795.80341506},"__v":0},{"_id":"629dbd7b1985b861f0e442e8","name":"NOVEMBER 2","compulsory":true,"country":"AT","airports":["626144331e911989f7b37e6c"],"geometry":{"type":"Point","coordinates":[11.1775,47.335833]},"elevation":{"value":1187,"unit":0,"referenceDatum":1},"createdAt":"2022-06-06T08:40:27.696Z","updatedAt":"2022-07-26T05:41:06.837Z","createdBy":"openaip-system","updatedBy":"OPONcQnzWGOLiJSceNaf8pvx1fA2","elevationGeoid":{"geoidHeight":49.62256181064001,"hae":1236.62256181064},"__v":0},{"_id":"629dbd801985b861f0e4431f","name":"MIKE 3","compulsory":false,"country":"AT","airports":["626144331e911989f7b37e6c"],"geometry":{"type":"Point","coordinates":[11.418333,47.24]},"elevation":{"value":845,"unit":0,"referenceDatum":1},"createdAt":"2022-06-06T08:40:32.741Z","updatedAt":"2022-07-26T05:41:11.831Z","createdBy":"openaip-system","updatedBy":"OPONcQnzWGOLiJSceNaf8pvx1fA2","elevationGeoid":{"geoidHeight":49.660454325119986,"hae":894.66045432512},"__v":0},{"_id":"62deecdebe333fd86bf7c9e6","name":"HOTEL","compulsory":true,"country":"AT","airports":["626144331e911989f7b37e6c"],"geometry":{"type":"Point","coordinates":[11.124167,47.33]},"elevation":{"value":1351,"unit":0,"referenceDatum":1},"createdAt":"2022-07-25T19:19:58.651Z","updatedAt":"2022-07-26T05:41:24.446Z","createdBy":"RHkPBTJIPyQQsJax00yVAYxBiPB2","updatedBy":"OPONcQnzWGOLiJSceNaf8pvx1fA2","elevationGeoid":{"geoidHeight":49.72887188304,"hae":1400.72887188304},"__v":0},{"_id":"629dbd7c1985b861f0e442f3","name":"GOLF","compulsory":false,"country":"AT","airports":["626144331e911989f7b37e6c"],"geometry":{"type":"Point","coordinates":[11.294722,47.263056]},"elevation":{"value":585,"unit":0,"referenceDatum":1},"createdAt":"2022-06-06T08:40:28.741Z","updatedAt":"2022-07-26T05:41:26.957Z","createdBy":"openaip-system","updatedBy":"OPONcQnzWGOLiJSceNaf8pvx1fA2","elevationGeoid":{"geoidHeight":49.73549093733121,"hae":634.7354909373312},"__v":0},{"_id":"62aed46bd9e5b540b6f7df97","name":"FIVE TREES","compulsory":false,"country":"DE","airports":["62614a39cb27f42509443f31"],"geometry":{"type":"Point","coordinates":[10.7626,49.2775]},"elevation":{"value":441,"unit":0,"referenceDatum":1},"createdAt":"2022-06-19T07:46:51.872Z","updatedAt":"2022-06-19T07:46:59.852Z","createdBy":"eBT9qSrxquPVguazo7MwJzzaf2p1","updatedBy":"eBT9qSrxquPVguazo7MwJzzaf2p1","elevationGeoid":{"geoidHeight":47.29042137600001,"hae":488.29042137600004},"__v":0},{"_id":"629dbdaa1985b861f0e444e3","name":"KIRCHHAM","compulsory":true,"country":"AT","airports":["626144321e911989f7b37db5"],"geometry":{"type":"Point","coordinates":[13.888333,47.97]},"elevation":{"value":478,"unit":0,"referenceDatum":1},"createdAt":"2022-06-06T08:41:14.271Z","updatedAt":"2022-07-20T05:24:53.558Z","createdBy":"openaip-system","updatedBy":"OPONcQnzWGOLiJSceNaf8pvx1fA2","elevationGeoid":{"geoidHeight":45.62833647407999,"hae":523.62833647408},"__v":0},{"_id":"629dbdab1985b861f0e444ee","name":"AUTOBAHN VORCHDORF","compulsory":false,"country":"AT","airports":["626144321e911989f7b37db5"],"geometry":{"type":"Point","coordinates":[13.913333,48.008333]},"elevation":{"value":397,"unit":0,"referenceDatum":1},"createdAt":"2022-06-06T08:41:15.380Z","updatedAt":"2022-07-20T05:24:56.046Z","createdBy":"openaip-system","updatedBy":"OPONcQnzWGOLiJSceNaf8pvx1fA2","elevationGeoid":{"geoidHeight":45.457548482879815,"hae":442.4575484828798},"__v":0},{"_id":"629dbd791985b861f0e442d2","name":"WHISKEY 2","compulsory":false,"country":"AT","airports":["626144331e911989f7b37e6c"],"geometry":{"type":"Point","coordinates":[11.169722,47.286389]},"elevation":{"value":588,"unit":0,"referenceDatum":1},"createdAt":"2022-06-06T08:40:25.674Z","updatedAt":"2022-07-26T05:40:59.373Z","createdBy":"openaip-system","updatedBy":"OPONcQnzWGOLiJSceNaf8pvx1fA2","elevationGeoid":{"geoidHeight":49.904847725239364,"hae":637.9048477252394},"__v":0},{"_id":"629dbdb94faf3fa9adc3b960","name":"WHISKEY","compulsory":true,"country":"AT","airports":["6261443f40573bd255395724"],"geometry":{"type":"Point","coordinates":[13.991667,48.178333]},"elevation":{"value":316,"unit":0,"referenceDatum":1},"createdAt":"2022-06-06T08:41:29.754Z","updatedAt":"2022-07-20T05:24:58.541Z","createdBy":"openaip-system","updatedBy":"OPONcQnzWGOLiJSceNaf8pvx1fA2","elevationGeoid":{"geoidHeight":45.29841575375988,"hae":361.29841575375985},"__v":0},{"_id":"629cca1ef4b4089a578e4fce","name":"SIERRA","compulsory":true,"country":"DE","airports":["62614a955e9ded5710444e03"],"geometry":{"type":"Point","coordinates":[10.981666666666667,49.41833333333334]},"elevation":{"value":322,"unit":0,"referenceDatum":1},"createdAt":"2022-06-05T15:22:06.990Z","updatedAt":"2022-06-05T19:50:22.105Z","createdBy":"openaip-system","updatedBy":"OPONcQnzWGOLiJSceNaf8pvx1fA2","elevationGeoid":{"geoidHeight":46.88849399999998,"hae":368.888494},"__v":0},{"_id":"62de8124bf705b00d6ce38d2","name":"P (PLANSEE)","compulsory":true,"country":"AT","airports":["62614438f2228b5341bf270e"],"geometry":{"type":"Point","coordinates":[10.763333,47.483333]},"elevation":{"value":1014,"unit":0,"referenceDatum":1},"createdAt":"2022-07-25T11:40:20.643Z","updatedAt":"2022-07-25T13:05:53.984Z","createdBy":"RHkPBTJIPyQQsJax00yVAYxBiPB2","updatedBy":"OPONcQnzWGOLiJSceNaf8pvx1fA2","elevationGeoid":{"geoidHeight":49.09116236880166,"hae":1063.0911623688016},"__v":0},{"_id":"62affa43d9e5b540b6fbdd35","name":"SIERRA2","compulsory":false,"country":"DE","airports":["62614a655e9ded5710443c3d"],"geometry":{"type":"Point","coordinates":[11.976166666666666,49.6615]},"elevation":{"value":425,"unit":0,"referenceDatum":1},"createdAt":"2022-06-20T04:40:35.199Z","updatedAt":"2022-06-20T04:40:42.114Z","createdBy":"eBT9qSrxquPVguazo7MwJzzaf2p1","updatedBy":"eBT9qSrxquPVguazo7MwJzzaf2p1","elevationGeoid":{"geoidHeight":46.847256000000016,"hae":471.847256},"__v":0},{"_id":"629dbd7d1985b861f0e442fe","name":"INDIA","compulsory":false,"country":"AT","airports":["626144331e911989f7b37e6c"],"geometry":{"type":"Point","coordinates":[11.280278,47.236111]},"elevation":{"value":856,"unit":0,"referenceDatum":1},"createdAt":"2022-06-06T08:40:29.719Z","updatedAt":"2022-07-26T05:41:19.471Z","createdBy":"openaip-system","updatedBy":"OPONcQnzWGOLiJSceNaf8pvx1fA2","elevationGeoid":{"geoidHeight":49.923157040052814,"hae":905.9231570400528},"__v":0},{"_id":"62aef04ad9e5b540b6f8015e","name":"SIERRA","compulsory":false,"country":"DE","airports":["62614a39cb27f42509443f31"],"geometry":{"type":"Point","coordinates":[10.7332,49.294133333333335]},"elevation":{"value":442,"unit":0,"referenceDatum":1},"createdAt":"2022-06-19T09:45:46.100Z","updatedAt":"2022-06-19T09:45:53.200Z","createdBy":"eBT9qSrxquPVguazo7MwJzzaf2p1","updatedBy":"eBT9qSrxquPVguazo7MwJzzaf2p1","elevationGeoid":{"geoidHeight":47.34385790208,"hae":489.34385790208},"__v":0},{"_id":"629dbd751985b861f0e442a6","name":"N1","compulsory":true,"country":"AT","airports":["62614438f2228b5341bf270e"],"geometry":{"type":"Point","coordinates":[10.656667,47.551667]},"elevation":{"value":796,"unit":0,"referenceDatum":1},"createdAt":"2022-06-06T08:40:21.725Z","updatedAt":"2022-07-25T13:06:01.495Z","createdBy":"openaip-system","updatedBy":"OPONcQnzWGOLiJSceNaf8pvx1fA2","elevationGeoid":{"geoidHeight":48.530337024000005,"hae":844.530337024},"__v":0},{"_id":"62de7fd5bf705b00d6ce3666","name":"N2","compulsory":true,"country":"AT","airports":["62614438f2228b5341bf270e"],"geometry":{"type":"Point","coordinates":[10.711667,47.51]},"elevation":{"value":822,"unit":0,"referenceDatum":1},"createdAt":"2022-07-25T11:34:45.962Z","updatedAt":"2022-07-25T13:05:56.499Z","createdBy":"RHkPBTJIPyQQsJax00yVAYxBiPB2","updatedBy":"OPONcQnzWGOLiJSceNaf8pvx1fA2","elevationGeoid":{"geoidHeight":48.86846403839999,"hae":870.8684640384},"__v":0},{"_id":"629cc9f0f4b4089a578e4e2c","name":"NOVEMBER1","compulsory":true,"country":"DE","airports":["62614a89cb27f42509446532"],"geometry":{"type":"Point","coordinates":[10.226666666666667,48.093333333333334]},"elevation":{"value":636,"unit":0,"referenceDatum":1},"createdAt":"2022-06-05T15:21:20.790Z","updatedAt":"2022-06-05T19:48:35.956Z","createdBy":"openaip-system","updatedBy":"OPONcQnzWGOLiJSceNaf8pvx1fA2","elevationGeoid":{"geoidHeight":46.94514239999998,"hae":682.9451424},"__v":0},{"_id":"62aed4f4d9e5b540b6f7e07e","name":"FOXTROT","compulsory":true,"country":"DE","airports":["62614a39cb27f42509443f31"],"geometry":{"type":"Point","coordinates":[10.601116666666666,49.21608333333333]},"elevation":{"value":477,"unit":0,"referenceDatum":1},"createdAt":"2022-06-19T07:49:08.297Z","updatedAt":"2022-06-19T07:49:15.969Z","createdBy":"eBT9qSrxquPVguazo7MwJzzaf2p1","updatedBy":"eBT9qSrxquPVguazo7MwJzzaf2p1","elevationGeoid":{"geoidHeight":47.607834045600015,"hae":524.6078340456},"__v":0},{"_id":"629dbd821985b861f0e44335","name":"SIERRA","compulsory":true,"country":"AT","airports":["626144331e911989f7b37e6c"],"geometry":{"type":"Point","coordinates":[11.398611,47.1825]},"elevation":{"value":1015,"unit":0,"referenceDatum":1},"createdAt":"2022-06-06T08:40:34.711Z","updatedAt":"2022-07-26T05:41:04.350Z","createdBy":"openaip-system","updatedBy":"OPONcQnzWGOLiJSceNaf8pvx1fA2","elevationGeoid":{"geoidHeight":50.10412564668002,"hae":1065.1041256466801},"__v":0},{"_id":"629dbd771985b861f0e442bc","name":"E","compulsory":true,"country":"AT","airports":["62614438f2228b5341bf270e"],"geometry":{"type":"Point","coordinates":[10.761667,47.443333]},"elevation":{"value":999,"unit":0,"referenceDatum":1},"createdAt":"2022-06-06T08:40:23.703Z","updatedAt":"2022-07-25T13:06:04.002Z","createdBy":"openaip-system","updatedBy":"OPONcQnzWGOLiJSceNaf8pvx1fA2","elevationGeoid":{"geoidHeight":49.39988658359829,"hae":1048.3998865835983},"__v":0},{"_id":"629cc9f1f4b4089a578e4e35","name":"NOVEMBER2","compulsory":true,"country":"DE","airports":["62614a89cb27f42509446532"],"geometry":{"type":"Point","coordinates":[10.218333333333334,48.041666666666664]},"elevation":{"value":672,"unit":0,"referenceDatum":1},"createdAt":"2022-06-05T15:21:22.000Z","updatedAt":"2022-06-05T19:48:38.446Z","createdBy":"openaip-system","updatedBy":"OPONcQnzWGOLiJSceNaf8pvx1fA2","elevationGeoid":{"geoidHeight":46.93497000000002,"hae":718.93497},"__v":0},{"_id":"62aed398d9e5b540b6f7de1c","name":"BRIDGE","compulsory":false,"country":"DE","airports":["62614a39cb27f42509443f31"],"geometry":{"type":"Point","coordinates":[10.682566666666666,49.301633333333335]},"elevation":{"value":457,"unit":0,"referenceDatum":1},"createdAt":"2022-06-19T07:43:20.314Z","updatedAt":"2022-06-19T07:43:28.521Z","createdBy":"eBT9qSrxquPVguazo7MwJzzaf2p1","updatedBy":"eBT9qSrxquPVguazo7MwJzzaf2p1","elevationGeoid":{"geoidHeight":47.44158294096002,"hae":504.44158294096},"__v":0},{"_id":"62aeeee3d9e5b540b6f80038","name":"PLANT","compulsory":false,"country":"DE","airports":["62614a39cb27f42509443f31"],"geometry":{"type":"Point","coordinates":[10.622466666666666,49.26]},"elevation":{"value":470,"unit":0,"referenceDatum":1},"createdAt":"2022-06-19T09:39:47.468Z","updatedAt":"2022-06-19T09:39:58.315Z","createdBy":"eBT9qSrxquPVguazo7MwJzzaf2p1","updatedBy":"eBT9qSrxquPVguazo7MwJzzaf2p1","elevationGeoid":{"geoidHeight":47.563564032000016,"hae":517.563564032},"__v":0},{"_id":"629cca1df4b4089a578e4fc5","name":"OSCAR","compulsory":true,"country":"DE","airports":["62614a955e9ded5710444e03"],"geometry":{"type":"Point","coordinates":[11.201666666666666,49.565]},"elevation":{"value":362,"unit":0,"referenceDatum":1},"createdAt":"2022-06-05T15:22:05.984Z","updatedAt":"2022-06-05T19:50:19.512Z","createdBy":"openaip-system","updatedBy":"OPONcQnzWGOLiJSceNaf8pvx1fA2","elevationGeoid":{"geoidHeight":46.7422536,"hae":408.7422536},"__v":0},{"_id":"629cc9f3f4b4089a578e4e3e","name":"SIERRA","compulsory":true,"country":"DE","airports":["62614a89cb27f42509446532"],"geometry":{"type":"Point","coordinates":[10.266666666666667,47.903333333333336]},"elevation":{"value":694,"unit":0,"referenceDatum":1},"createdAt":"2022-06-05T15:21:23.236Z","updatedAt":"2022-06-05T19:48:40.950Z","createdBy":"openaip-system","updatedBy":"OPONcQnzWGOLiJSceNaf8pvx1fA2","elevationGeoid":{"geoidHeight":47.067000000000036,"hae":741.067},"__v":0},{"_id":"62aff869d9e5b540b6fbda7a","name":"ECHO","compulsory":true,"country":"DE","airports":["62614a655e9ded5710443c3d"],"geometry":{"type":"Point","coordinates":[12.0385,49.70816666666666]},"elevation":{"value":451,"unit":0,"referenceDatum":1},"createdAt":"2022-06-20T04:32:41.295Z","updatedAt":"2022-06-20T04:32:48.710Z","createdBy":"eBT9qSrxquPVguazo7MwJzzaf2p1","updatedBy":"eBT9qSrxquPVguazo7MwJzzaf2p1","elevationGeoid":{"geoidHeight":46.94719063199997,"hae":497.947190632},"__v":0},{"_id":"62aed408d9e5b540b6f7df38","name":"CHARLIE","compulsory":true,"country":"DE","airports":["62614a39cb27f42509443f31"],"geometry":{"type":"Point","coordinates":[10.744966666666667,49.35828333333333]},"elevation":{"value":408,"unit":0,"referenceDatum":1},"createdAt":"2022-06-19T07:45:12.596Z","updatedAt":"2022-06-19T07:45:20.615Z","createdBy":"eBT9qSrxquPVguazo7MwJzzaf2p1","updatedBy":"eBT9qSrxquPVguazo7MwJzzaf2p1","elevationGeoid":{"geoidHeight":47.3073732,"hae":455.30737320000003},"__v":0},{"_id":"629dbdbc84c57df79c237ccc","name":"ECHO","compulsory":true,"country":"AT","airports":["6261443f40573bd255395724"],"geometry":{"type":"Point","coordinates":[14.078333,48.168333]},"elevation":{"value":305,"unit":0,"referenceDatum":1},"createdAt":"2022-06-06T08:41:32.216Z","updatedAt":"2022-07-20T05:25:01.027Z","createdBy":"openaip-system","updatedBy":"OPONcQnzWGOLiJSceNaf8pvx1fA2","elevationGeoid":{"geoidHeight":45.332399400000014,"hae":350.3323994},"__v":0},{"_id":"62aeef5fd9e5b540b6f80089","name":"POWER STATION","compulsory":false,"country":"DE","airports":["62614a39cb27f42509443f31"],"geometry":{"type":"Point","coordinates":[10.626533333333333,49.29155]},"elevation":{"value":446,"unit":0,"referenceDatum":1},"createdAt":"2022-06-19T09:41:51.473Z","updatedAt":"2022-06-19T09:41:58.570Z","createdBy":"eBT9qSrxquPVguazo7MwJzzaf2p1","updatedBy":"eBT9qSrxquPVguazo7MwJzzaf2p1","elevationGeoid":{"geoidHeight":47.55087113184001,"hae":493.55087113184004},"__v":0},{"_id":"62aed2a0d9e5b540b6f7dbf4","name":"ALPHA","compulsory":false,"country":"DE","airports":["62614a39cb27f42509443f31"],"geometry":{"type":"Point","coordinates":[10.668966666666666,49.326566666666665]},"elevation":{"value":449,"unit":0,"referenceDatum":1},"createdAt":"2022-06-19T07:39:12.270Z","updatedAt":"2022-06-19T07:39:20.028Z","createdBy":"eBT9qSrxquPVguazo7MwJzzaf2p1","updatedBy":"eBT9qSrxquPVguazo7MwJzzaf2p1","elevationGeoid":{"geoidHeight":47.462914323360025,"hae":496.46291432336},"__v":0},{"_id":"62aed30cd9e5b540b6f7dc77","name":"BRAVO","compulsory":false,"country":"DE","airports":["62614a39cb27f42509443f31"],"geometry":{"type":"Point","coordinates":[10.681333333333333,49.34205]},"elevation":{"value":355,"unit":0,"referenceDatum":1},"createdAt":"2022-06-19T07:41:00.945Z","updatedAt":"2022-06-19T07:41:08.109Z","createdBy":"eBT9qSrxquPVguazo7MwJzzaf2p1","updatedBy":"eBT9qSrxquPVguazo7MwJzzaf2p1","elevationGeoid":{"geoidHeight":47.435704799999996,"hae":402.4357048},"__v":0},{"_id":"62aef11ad9e5b540b6f80253","name":"TANGO","compulsory":false,"country":"DE","airports":["62614a39cb27f42509443f31"],"geometry":{"type":"Point","coordinates":[10.611816666666666,49.29533333333333]},"elevation":{"value":413,"unit":0,"referenceDatum":1},"createdAt":"2022-06-19T09:49:14.577Z","updatedAt":"2022-06-19T09:49:21.665Z","createdBy":"eBT9qSrxquPVguazo7MwJzzaf2p1","updatedBy":"eBT9qSrxquPVguazo7MwJzzaf2p1","elevationGeoid":{"geoidHeight":47.57813514719999,"hae":460.5781351472},"__v":0},{"_id":"62aef17ad9e5b540b6f80354","name":"WHISKEY","compulsory":true,"country":"DE","airports":["62614a39cb27f42509443f31"],"geometry":{"type":"Point","coordinates":[10.606333333333334,49.30478333333333]},"elevation":{"value":428,"unit":0,"referenceDatum":1},"createdAt":"2022-06-19T09:50:50.429Z","updatedAt":"2022-06-19T09:50:57.159Z","createdBy":"eBT9qSrxquPVguazo7MwJzzaf2p1","updatedBy":"eBT9qSrxquPVguazo7MwJzzaf2p1","elevationGeoid":{"geoidHeight":47.58722241839999,"hae":475.58722241839996},"__v":0},{"_id":"629dbd781985b861f0e442c7","name":"WHISKEY 1","compulsory":true,"country":"AT","airports":["626144331e911989f7b37e6c"],"geometry":{"type":"Point","coordinates":[10.964167,47.277778]},"elevation":{"value":634,"unit":0,"referenceDatum":1},"createdAt":"2022-06-06T08:40:24.713Z","updatedAt":"2022-07-26T05:41:01.853Z","createdBy":"openaip-system","updatedBy":"OPONcQnzWGOLiJSceNaf8pvx1fA2","elevationGeoid":{"geoidHeight":50.17917909655847,"hae":684.1791790965585},"__v":0},{"_id":"62de8177bf705b00d6ce3a2e","name":"H (HALDENSEE)","compulsory":true,"country":"AT","airports":["62614438f2228b5341bf270e"],"geometry":{"type":"Point","coordinates":[10.593333,47.49]},"elevation":{"value":1151,"unit":0,"referenceDatum":1},"createdAt":"2022-07-25T11:41:43.061Z","updatedAt":"2022-07-25T13:05:51.507Z","createdBy":"RHkPBTJIPyQQsJax00yVAYxBiPB2","updatedBy":"OPONcQnzWGOLiJSceNaf8pvx1fA2","elevationGeoid":{"geoidHeight":49.069733010239986,"hae":1200.06973301024},"__v":0},{"_id":"629dbdc284c57df79c237d50","name":"KILO","compulsory":false,"country":"AT","airports":["62614436f2228b5341bf2629"],"geometry":{"type":"Point","coordinates":[14.151944444444444,48.31583333333333]},"elevation":{"value":259,"unit":0,"referenceDatum":1},"createdAt":"2022-06-06T08:41:38.393Z","updatedAt":"2023-03-08T08:31:59.702Z","createdBy":"openaip-system","updatedBy":"OPONcQnzWGOLiJSceNaf8pvx1fA2","elevationGeoid":{"geoidHeight":45.70603209999999,"hae":304.7060321},"__v":1},{"_id":"62b47c541573c2563faacb88","name":"ECHO","compulsory":true,"country":"DE","airports":["62614a81cb27f425094461be"],"geometry":{"type":"Point","coordinates":[10.073055555555555,48.2025]},"elevation":{"value":519,"unit":0,"referenceDatum":1},"createdAt":"2022-06-23T14:44:36.794Z","updatedAt":"2022-06-23T14:44:43.538Z","createdBy":"eBT9qSrxquPVguazo7MwJzzaf2p1","updatedBy":"eBT9qSrxquPVguazo7MwJzzaf2p1","elevationGeoid":{"geoidHeight":47.14967279999999,"hae":566.1496728},"__v":0},{"_id":"629dbdbd84c57df79c237d24","name":"SIERRA","compulsory":false,"country":"AT","airports":["62614436f2228b5341bf2629"],"geometry":{"type":"Point","coordinates":[14.14638888888889,48.14472222222222]},"elevation":{"value":366,"unit":0,"referenceDatum":1},"createdAt":"2022-06-06T08:41:33.983Z","updatedAt":"2023-03-08T08:31:57.012Z","createdBy":"openaip-system","updatedBy":"OPONcQnzWGOLiJSceNaf8pvx1fA2","elevationGeoid":{"geoidHeight":45.40777009999999,"hae":411.4077701},"__v":1},{"_id":"62b47c9e1573c2563faacde3","name":"ILLER","compulsory":true,"country":"DE","airports":["62614a81cb27f425094461be"],"geometry":{"type":"Point","coordinates":[10.033055555555556,48.275777777777776]},"elevation":{"value":541,"unit":0,"referenceDatum":1},"createdAt":"2022-06-23T14:45:50.566Z","updatedAt":"2022-06-23T14:45:57.213Z","createdBy":"eBT9qSrxquPVguazo7MwJzzaf2p1","updatedBy":"eBT9qSrxquPVguazo7MwJzzaf2p1","elevationGeoid":{"geoidHeight":47.29847314666668,"hae":588.2984731466667},"__v":0},{"_id":"62aeefd3d9e5b540b6f800e2","name":"RIDGE","compulsory":false,"country":"DE","airports":["62614a39cb27f42509443f31"],"geometry":{"type":"Point","coordinates":[10.603283333333334,49.359433333333335]},"elevation":{"value":493,"unit":0,"referenceDatum":1},"createdAt":"2022-06-19T09:43:47.455Z","updatedAt":"2022-06-19T09:43:56.164Z","createdBy":"eBT9qSrxquPVguazo7MwJzzaf2p1","updatedBy":"eBT9qSrxquPVguazo7MwJzzaf2p1","elevationGeoid":{"geoidHeight":47.59046141832002,"hae":540.59046141832},"__v":0},{"_id":"643dc31959cb6ab383bac901","compulsory":true,"airports":["626144331e911989f7b37e6c"],"createdAt":"2023-04-17T22:07:21.413Z","updatedAt":"2023-04-17T22:07:21.415Z","name":"KILO","country":"AT","geometry":{"type":"Point","coordinates":[11,47.21111111111111]},"elevation":{"value":1894,"unit":0,"referenceDatum":1},"elevationGeoid":{"geoidHeight":50.74040000000002,"hae":1944.7404000000001},"createdBy":"OPONcQnzWGOLiJSceNaf8pvx1fA2","updatedBy":"OPONcQnzWGOLiJSceNaf8pvx1fA2","__v":0},{"_id":"629dbd761985b861f0e442b1","name":"W","compulsory":true,"country":"AT","airports":["62614438f2228b5341bf270e"],"geometry":{"type":"Point","coordinates":[10.595,47.423333]},"elevation":{"value":903,"unit":0,"referenceDatum":1},"createdAt":"2022-06-06T08:40:22.730Z","updatedAt":"2022-07-25T13:05:58.992Z","createdBy":"openaip-system","updatedBy":"OPONcQnzWGOLiJSceNaf8pvx1fA2","elevationGeoid":{"geoidHeight":49.53202791671998,"hae":952.5320279167199},"__v":0},{"_id":"629cca1cf4b4089a578e4fba","name":"NOVEMBER","compulsory":true,"country":"DE","airports":["62614a955e9ded5710444e03"],"geometry":{"type":"Point","coordinates":[10.96,49.586666666666666]},"elevation":{"value":295,"unit":0,"referenceDatum":1},"createdAt":"2022-06-05T15:22:04.817Z","updatedAt":"2022-06-05T19:50:16.989Z","createdBy":"openaip-system","updatedBy":"OPONcQnzWGOLiJSceNaf8pvx1fA2","elevationGeoid":{"geoidHeight":46.92822240000001,"hae":341.9282224},"__v":0},{"_id":"62aed567d9e5b540b6f7e0cd","name":"LINDACH","compulsory":true,"country":"DE","airports":["62614a39cb27f42509443f31"],"geometry":{"type":"Point","coordinates":[10.57075,49.38435]},"elevation":{"value":447,"unit":0,"referenceDatum":1},"createdAt":"2022-06-19T07:51:03.201Z","updatedAt":"2022-06-19T07:51:10.324Z","createdBy":"eBT9qSrxquPVguazo7MwJzzaf2p1","updatedBy":"eBT9qSrxquPVguazo7MwJzzaf2p1","elevationGeoid":{"geoidHeight":47.658905433,"hae":494.658905433},"__v":0},{"_id":"62aff93cd9e5b540b6fbdbfa","name":"NOVEMBER2","compulsory":true,"country":"DE","airports":["62614a655e9ded5710443c3d"],"geometry":{"type":"Point","coordinates":[11.904,49.811166666666665]},"elevation":{"value":442,"unit":0,"referenceDatum":1},"createdAt":"2022-06-20T04:36:12.424Z","updatedAt":"2022-06-20T04:36:19.751Z","createdBy":"eBT9qSrxquPVguazo7MwJzzaf2p1","updatedBy":"eBT9qSrxquPVguazo7MwJzzaf2p1","elevationGeoid":{"geoidHeight":47.01410966400002,"hae":489.014109664},"__v":0},{"_id":"62dee91ebe333fd86bf7c665","name":"BRENNER","compulsory":true,"country":"AT","airports":["626144331e911989f7b37e6c"],"geometry":{"type":"Point","coordinates":[11.498333,47.011944]},"elevation":{"value":1710,"unit":0,"referenceDatum":1},"createdAt":"2022-07-25T19:03:58.891Z","updatedAt":"2022-07-26T05:41:21.973Z","createdBy":"RHkPBTJIPyQQsJax00yVAYxBiPB2","updatedBy":"OPONcQnzWGOLiJSceNaf8pvx1fA2","elevationGeoid":{"geoidHeight":50.93695022180083,"hae":1760.9369502218008},"__v":0},{"_id":"63babb85a4a6de66a68ce4ec","name":"SIERRA2 (MIL)","compulsory":false,"country":"AT","airports":["62614436f2228b5341bf2629"],"geometry":{"type":"Point","coordinates":[14.249444444444444,48.176944444444445]},"elevation":{"value":275,"unit":0,"referenceDatum":1},"createdAt":"2023-01-08T12:48:05.065Z","updatedAt":"2023-03-08T08:32:08.487Z","createdBy":"eBT9qSrxquPVguazo7MwJzzaf2p1","updatedBy":"OPONcQnzWGOLiJSceNaf8pvx1fA2","elevationGeoid":{"geoidHeight":45.521629733333356,"hae":320.5216297333334},"__v":1},{"_id":"629dbdbf84c57df79c237d2c","name":"OSCAR","compulsory":false,"country":"AT","airports":["62614436f2228b5341bf2629"],"geometry":{"type":"Point","coordinates":[14.265555555555556,48.13777777777778]},"elevation":{"value":322,"unit":0,"referenceDatum":1},"createdAt":"2022-06-06T08:41:35.319Z","updatedAt":"2023-03-08T08:32:02.816Z","createdBy":"openaip-system","updatedBy":"OPONcQnzWGOLiJSceNaf8pvx1fA2","elevationGeoid":{"geoidHeight":45.5316048,"hae":367.53160479999997},"__v":1},{"_id":"62b47cf41573c2563faad0bd","name":"NOVEMBER","compulsory":true,"country":"DE","airports":["62614a81cb27f425094461be"],"geometry":{"type":"Point","coordinates":[9.921944444444444,48.294444444444444]},"elevation":{"value":495,"unit":0,"referenceDatum":1},"createdAt":"2022-06-23T14:47:16.605Z","updatedAt":"2022-06-23T14:47:23.400Z","createdBy":"eBT9qSrxquPVguazo7MwJzzaf2p1","updatedBy":"eBT9qSrxquPVguazo7MwJzzaf2p1","elevationGeoid":{"geoidHeight":47.48268866666666,"hae":542.4826886666667},"__v":0},{"_id":"62aff8d9d9e5b540b6fbdb41","name":"NOVEMBER1","compulsory":false,"country":"DE","airports":["62614a655e9ded5710443c3d"],"geometry":{"type":"Point","coordinates":[11.597,49.82216694444445]},"elevation":{"value":446,"unit":0,"referenceDatum":1},"createdAt":"2022-06-20T04:34:33.552Z","updatedAt":"2022-12-13T16:54:41.141Z","createdBy":"eBT9qSrxquPVguazo7MwJzzaf2p1","updatedBy":"OPONcQnzWGOLiJSceNaf8pvx1fA2","elevationGeoid":{"geoidHeight":46.832676361840015,"hae":492.83267636184},"__v":0},{"_id":"629dbdc184c57df79c237d45","name":"PLESCHINGER SEE","compulsory":false,"country":"AT","airports":["626144361e911989f7b37f5f"],"geometry":{"type":"Point","coordinates":[14.33156,48.32639]},"elevation":{"value":243,"unit":0,"referenceDatum":1},"createdAt":"2022-06-06T08:41:37.388Z","updatedAt":"2022-07-20T05:25:10.955Z","createdBy":"openaip-system","updatedBy":"OPONcQnzWGOLiJSceNaf8pvx1fA2","elevationGeoid":{"geoidHeight":45.90661563914881,"hae":288.9066156391488},"__v":1},{"_id":"62d947a1d1d66c81fa0585e1","name":"BAD MITTERNDORF","compulsory":false,"country":"AT","airports":["6261442f1e911989f7b37c78"],"geometry":{"type":"Point","coordinates":[13.936389,47.554722]},"elevation":{"value":805,"unit":0,"referenceDatum":1},"createdAt":"2022-07-21T12:33:37.069Z","updatedAt":"2022-07-22T05:01:02.576Z","createdBy":"RHkPBTJIPyQQsJax00yVAYxBiPB2","updatedBy":"OPONcQnzWGOLiJSceNaf8pvx1fA2","elevationGeoid":{"geoidHeight":47.95977001866626,"hae":852.9597700186663},"__v":0},{"_id":"629dbdc084c57df79c237d3a","name":"STEYREGG","compulsory":false,"country":"AT","airports":["626144361e911989f7b37f5f"],"geometry":{"type":"Point","coordinates":[14.37,48.275]},"elevation":{"value":245,"unit":0,"referenceDatum":1},"createdAt":"2022-06-06T08:41:36.376Z","updatedAt":"2022-07-20T05:25:08.468Z","createdBy":"openaip-system","updatedBy":"OPONcQnzWGOLiJSceNaf8pvx1fA2","elevationGeoid":{"geoidHeight":45.732528,"hae":290.732528},"__v":1},{"_id":"62b009f4d9e5b540b6fc03cf","name":"ECHO1","compulsory":true,"country":"DE","airports":["62614a75cb27f42509445d70"],"geometry":{"type":"Point","coordinates":[10.52481388888889,49.502716666666664]},"elevation":{"value":424,"unit":0,"referenceDatum":1},"createdAt":"2022-06-20T05:47:32.389Z","updatedAt":"2022-06-20T05:47:38.911Z","createdBy":"eBT9qSrxquPVguazo7MwJzzaf2p1","updatedBy":"eBT9qSrxquPVguazo7MwJzzaf2p1","elevationGeoid":{"geoidHeight":47.76961820789998,"hae":471.76961820789995},"__v":0},{"_id":"62d94865d1d66c81fa058c0a","name":"GRÖBMING","compulsory":false,"country":"AT","airports":["6261442f1e911989f7b37c78"],"geometry":{"type":"Point","coordinates":[13.901667,47.439444]},"elevation":{"value":773,"unit":0,"referenceDatum":1},"createdAt":"2022-07-21T12:36:53.796Z","updatedAt":"2022-07-22T05:01:10.703Z","createdBy":"RHkPBTJIPyQQsJax00yVAYxBiPB2","updatedBy":"OPONcQnzWGOLiJSceNaf8pvx1fA2","elevationGeoid":{"geoidHeight":48.419362237361895,"hae":821.4193622373618},"__v":0},{"_id":"62b47d4d1573c2563faad242","name":"SIERRA","compulsory":true,"country":"DE","airports":["62614a81cb27f425094461be"],"geometry":{"type":"Point","coordinates":[9.83388888888889,48.149166666666666]},"elevation":{"value":537,"unit":0,"referenceDatum":1},"createdAt":"2022-06-23T14:48:45.565Z","updatedAt":"2022-06-23T14:48:53.406Z","createdBy":"eBT9qSrxquPVguazo7MwJzzaf2p1","updatedBy":"eBT9qSrxquPVguazo7MwJzzaf2p1","elevationGeoid":{"geoidHeight":47.303989400000006,"hae":584.3039894},"__v":0},{"_id":"62b00a63d9e5b540b6fc04e2","name":"ECHO2","compulsory":false,"country":"DE","airports":["62614a75cb27f42509445d70"],"geometry":{"type":"Point","coordinates":[10.450441666666666,49.46787222222222]},"elevation":{"value":392,"unit":0,"referenceDatum":1},"createdAt":"2022-06-20T05:49:23.562Z","updatedAt":"2022-06-20T05:49:31.715Z","createdBy":"eBT9qSrxquPVguazo7MwJzzaf2p1","updatedBy":"eBT9qSrxquPVguazo7MwJzzaf2p1","elevationGeoid":{"geoidHeight":47.905826240159996,"hae":439.90582624015997},"__v":0},{"_id":"62b02e30d9e5b540b6fc61a5","name":"SIERRA","compulsory":true,"country":"DE","airports":["62614a75cb27f42509445d70"],"geometry":{"type":"Point","coordinates":[10.379294444444444,49.42619444444444]},"elevation":{"value":468,"unit":0,"referenceDatum":1},"createdAt":"2022-06-20T08:22:08.272Z","updatedAt":"2022-06-20T08:22:18.905Z","createdBy":"eBT9qSrxquPVguazo7MwJzzaf2p1","updatedBy":"eBT9qSrxquPVguazo7MwJzzaf2p1","elevationGeoid":{"geoidHeight":48.048516831533334,"hae":516.0485168315333},"__v":0},{"_id":"62de9559bf705b00d6ce65b0","name":"W","compulsory":true,"country":"AT","airports":["626144371e911989f7b37ff9"],"geometry":{"type":"Point","coordinates":[13.933333,47.44]},"elevation":{"value":644,"unit":0,"referenceDatum":1},"createdAt":"2022-07-25T13:06:33.518Z","updatedAt":"2022-07-25T17:21:23.917Z","createdBy":"RHkPBTJIPyQQsJax00yVAYxBiPB2","updatedBy":"OPONcQnzWGOLiJSceNaf8pvx1fA2","elevationGeoid":{"geoidHeight":48.413879884800025,"hae":692.4138798848},"__v":0},{"_id":"62b47d9e1573c2563faad2cc","name":"WHISKEY","compulsory":true,"country":"DE","airports":["62614a81cb27f425094461be"],"geometry":{"type":"Point","coordinates":[9.769444444444444,48.20444444444445]},"elevation":{"value":523,"unit":0,"referenceDatum":1},"createdAt":"2022-06-23T14:50:06.007Z","updatedAt":"2022-06-23T14:50:12.516Z","createdBy":"eBT9qSrxquPVguazo7MwJzzaf2p1","updatedBy":"eBT9qSrxquPVguazo7MwJzzaf2p1","elevationGeoid":{"geoidHeight":47.50373866666669,"hae":570.5037386666667},"__v":0},{"_id":"62d949afd1d66c81fa0595ba","name":"TRAUTENFELS","compulsory":true,"country":"AT","airports":["6261442f1e911989f7b37c78"],"geometry":{"type":"Point","coordinates":[14.081667,47.52]},"elevation":{"value":642,"unit":0,"referenceDatum":1},"remarks":"Compulsory Flag not stated in the AIP. Probably compulsory.","createdAt":"2022-07-21T12:42:23.323Z","updatedAt":"2022-07-22T05:01:24.430Z","createdBy":"RHkPBTJIPyQQsJax00yVAYxBiPB2","updatedBy":"OPONcQnzWGOLiJSceNaf8pvx1fA2","elevationGeoid":{"geoidHeight":48.09348256752003,"hae":690.09348256752},"__v":0},{"_id":"62b00ac7d9e5b540b6fc05d7","name":"INTERSECTION","compulsory":false,"country":"DE","airports":["62614a75cb27f42509445d70"],"geometry":{"type":"Point","coordinates":[10.354825,49.469027777777775]},"elevation":{"value":325,"unit":0,"referenceDatum":1},"createdAt":"2022-06-20T05:51:03.389Z","updatedAt":"2022-06-20T05:51:10.795Z","createdBy":"eBT9qSrxquPVguazo7MwJzzaf2p1","updatedBy":"eBT9qSrxquPVguazo7MwJzzaf2p1","elevationGeoid":{"geoidHeight":48.07811819050002,"hae":373.07811819050005},"__v":0},{"_id":"62de95afbf705b00d6ce67f5","name":"E","compulsory":true,"country":"AT","airports":["626144371e911989f7b37ff9"],"geometry":{"type":"Point","coordinates":[14.081667,47.518333]},"elevation":{"value":669,"unit":0,"referenceDatum":1},"createdAt":"2022-07-25T13:07:59.696Z","updatedAt":"2022-07-25T17:21:21.425Z","createdBy":"RHkPBTJIPyQQsJax00yVAYxBiPB2","updatedBy":"OPONcQnzWGOLiJSceNaf8pvx1fA2","elevationGeoid":{"geoidHeight":48.0961278955198,"hae":717.0961278955198},"__v":0},{"_id":"62d948cbd1d66c81fa058fc4","name":"HOCHTAUSING","compulsory":false,"country":"AT","airports":["6261442f1e911989f7b37c78"],"geometry":{"type":"Point","coordinates":[14.146944,47.579167]},"elevation":{"value":1344,"unit":0,"referenceDatum":1},"createdAt":"2022-07-21T12:38:35.238Z","updatedAt":"2022-07-22T05:01:14.501Z","createdBy":"RHkPBTJIPyQQsJax00yVAYxBiPB2","updatedBy":"OPONcQnzWGOLiJSceNaf8pvx1fA2","elevationGeoid":{"geoidHeight":47.97151643704166,"hae":1391.9715164370416},"__v":0},{"_id":"63babb60a4a6de66a68ce4c5","name":"MIKE (MIL)","compulsory":false,"country":"AT","airports":["62614436f2228b5341bf2629"],"geometry":{"type":"Point","coordinates":[14.483333333333333,48.17722222222222]},"elevation":{"value":246,"unit":0,"referenceDatum":1},"createdAt":"2023-01-08T12:47:28.889Z","updatedAt":"2023-03-08T08:32:05.560Z","createdBy":"eBT9qSrxquPVguazo7MwJzzaf2p1","updatedBy":"OPONcQnzWGOLiJSceNaf8pvx1fA2","elevationGeoid":{"geoidHeight":45.682804000000004,"hae":291.68280400000003},"__v":1},{"_id":"629dbdac1985b861f0e444f9","name":"WHISKEY","compulsory":true,"country":"AT","airports":["626144361e911989f7b37f48"],"geometry":{"type":"Point","coordinates":[12.783333,46.833333]},"elevation":{"value":664,"unit":0,"referenceDatum":1},"createdAt":"2022-06-06T08:41:16.389Z","updatedAt":"2022-07-25T17:21:18.929Z","createdBy":"openaip-system","updatedBy":"OPONcQnzWGOLiJSceNaf8pvx1fA2","elevationGeoid":{"geoidHeight":50.69100130800095,"hae":714.691001308001},"__v":0},{"_id":"62b02dd8d9e5b540b6fc60ee","name":"NOVEMBER3","compulsory":false,"country":"DE","airports":["62614a75cb27f42509445d70"],"geometry":{"type":"Point","coordinates":[10.299808333333333,49.49206111111111]},"elevation":{"value":370,"unit":0,"referenceDatum":1},"createdAt":"2022-06-20T08:20:40.506Z","updatedAt":"2022-06-20T08:20:53.208Z","createdBy":"eBT9qSrxquPVguazo7MwJzzaf2p1","updatedBy":"eBT9qSrxquPVguazo7MwJzzaf2p1","elevationGeoid":{"geoidHeight":48.15468126403999,"hae":418.15468126404},"__v":0},{"_id":"62b02e85d9e5b540b6fc6230","name":"WHISKEY","compulsory":true,"country":"DE","airports":["62614a75cb27f42509445d70"],"geometry":{"type":"Point","coordinates":[10.229075,49.47421388888889]},"elevation":{"value":414,"unit":0,"referenceDatum":1},"createdAt":"2022-06-20T08:23:33.680Z","updatedAt":"2022-06-20T08:23:40.532Z","createdBy":"eBT9qSrxquPVguazo7MwJzzaf2p1","updatedBy":"eBT9qSrxquPVguazo7MwJzzaf2p1","elevationGeoid":{"geoidHeight":48.26386837291,"hae":462.26386837291},"__v":0},{"_id":"629cca0ff4b4089a578e4f32","name":"HOTEL","compulsory":true,"country":"DE","airports":["62614a93cb27f4250944696a"],"geometry":{"type":"Point","coordinates":[10.084288888888889,49.35366111111111]},"elevation":{"value":461,"unit":0,"referenceDatum":1},"createdAt":"2022-06-05T15:21:51.738Z","updatedAt":"2022-06-28T05:12:15.592Z","createdBy":"openaip-system","updatedBy":"eBT9qSrxquPVguazo7MwJzzaf2p1","elevationGeoid":{"geoidHeight":48.49827432176002,"hae":509.49827432176005},"__v":0},{"_id":"629dbdca84c57df79c237da1","name":"LIEZEN","compulsory":true,"country":"AT","airports":["6261442f1e911989f7b37c78"],"geometry":{"type":"Point","coordinates":[14.246111,47.570833]},"elevation":{"value":715,"unit":0,"referenceDatum":1},"createdAt":"2022-06-06T08:41:46.636Z","updatedAt":"2022-07-22T05:00:58.268Z","createdBy":"openaip-system","updatedBy":"OPONcQnzWGOLiJSceNaf8pvx1fA2","elevationGeoid":{"geoidHeight":47.93116334791941,"hae":762.9311633479194},"__v":0,"remarks":"Compulsory Flag not stated in the AIP. Probably compulsory."},{"_id":"62b02d83d9e5b540b6fc5f55","name":"NOVEMBER2","compulsory":false,"country":"DE","airports":["62614a75cb27f42509445d70"],"geometry":{"type":"Point","coordinates":[10.288408333333333,49.53111111111111]},"elevation":{"value":370,"unit":0,"referenceDatum":1},"createdAt":"2022-06-20T08:19:15.276Z","updatedAt":"2022-06-20T08:19:22.635Z","createdBy":"eBT9qSrxquPVguazo7MwJzzaf2p1","updatedBy":"eBT9qSrxquPVguazo7MwJzzaf2p1","elevationGeoid":{"geoidHeight":48.140065456,"hae":418.140065456},"__v":0},{"_id":"62b02cf3d9e5b540b6fc5be8","name":"NOVEMBER1","compulsory":true,"country":"DE","airports":["62614a75cb27f42509445d70"],"geometry":{"type":"Point","coordinates":[10.299266666666666,49.54459722222222]},"elevation":{"value":377,"unit":0,"referenceDatum":1},"createdAt":"2022-06-20T08:16:51.539Z","updatedAt":"2022-06-20T08:17:15.925Z","createdBy":"eBT9qSrxquPVguazo7MwJzzaf2p1","updatedBy":"eBT9qSrxquPVguazo7MwJzzaf2p1","elevationGeoid":{"geoidHeight":48.11435170119998,"hae":425.1143517012},"__v":0},{"_id":"62d94934d1d66c81fa05932a","name":"LASSING","compulsory":false,"country":"AT","airports":["6261442f1e911989f7b37c78"],"geometry":{"type":"Point","coordinates":[14.258333,47.534167]},"elevation":{"value":734,"unit":0,"referenceDatum":1},"createdAt":"2022-07-21T12:40:20.396Z","updatedAt":"2022-07-22T05:01:17.399Z","createdBy":"RHkPBTJIPyQQsJax00yVAYxBiPB2","updatedBy":"OPONcQnzWGOLiJSceNaf8pvx1fA2","elevationGeoid":{"geoidHeight":48.069976710481654,"hae":782.0699767104817},"__v":0},{"_id":"62d94808d1d66c81fa058962","name":"DONNERSBACHWALD","compulsory":false,"country":"AT","airports":["6261442f1e911989f7b37c78"],"geometry":{"type":"Point","coordinates":[14.116389,47.384444]},"elevation":{"value":960,"unit":0,"referenceDatum":1},"createdAt":"2022-07-21T12:35:20.911Z","updatedAt":"2022-07-22T05:01:06.290Z","createdBy":"RHkPBTJIPyQQsJax00yVAYxBiPB2","updatedBy":"OPONcQnzWGOLiJSceNaf8pvx1fA2","elevationGeoid":{"geoidHeight":48.9815897933328,"hae":1008.9815897933328},"__v":0},{"_id":"629cca0bf4b4089a578e4f0e","name":"ECHO","compulsory":true,"country":"DE","airports":["62614a93cb27f4250944696a"],"geometry":{"type":"Point","coordinates":[10.086375,49.455666666666666]},"elevation":{"value":408,"unit":0,"referenceDatum":1},"createdAt":"2022-06-05T15:21:47.320Z","updatedAt":"2022-06-28T05:11:07.184Z","createdBy":"openaip-system","updatedBy":"eBT9qSrxquPVguazo7MwJzzaf2p1","elevationGeoid":{"geoidHeight":48.437875476000016,"hae":456.43787547600004},"__v":0},{"_id":"62d94973d1d66c81fa05936e","name":"OPPENBERG","compulsory":false,"country":"AT","airports":["6261442f1e911989f7b37c78"],"geometry":{"type":"Point","coordinates":[14.273889,47.488333]},"elevation":{"value":1055,"unit":0,"referenceDatum":1},"createdAt":"2022-07-21T12:41:23.846Z","updatedAt":"2022-07-22T05:01:21.622Z","createdBy":"RHkPBTJIPyQQsJax00yVAYxBiPB2","updatedBy":"OPONcQnzWGOLiJSceNaf8pvx1fA2","elevationGeoid":{"geoidHeight":48.30307341199969,"hae":1103.3030734119998},"__v":0},{"_id":"629cca0cf4b4089a578e4f17","name":"SIERRA","compulsory":true,"country":"DE","airports":["62614a93cb27f4250944696a"],"geometry":{"type":"Point","coordinates":[9.953333333333333,49.336936111111115]},"elevation":{"value":480,"unit":0,"referenceDatum":1},"createdAt":"2022-06-05T15:21:48.379Z","updatedAt":"2022-06-28T05:15:23.075Z","createdBy":"openaip-system","updatedBy":"eBT9qSrxquPVguazo7MwJzzaf2p1","elevationGeoid":{"geoidHeight":48.61945014,"hae":528.61945014},"__v":0},{"_id":"629dbdad1985b861f0e44504","name":"ECHO","compulsory":true,"country":"AT","airports":["626144361e911989f7b37f48"],"geometry":{"type":"Point","coordinates":[12.95,46.75]},"elevation":{"value":613,"unit":0,"referenceDatum":1},"createdAt":"2022-06-06T08:41:17.450Z","updatedAt":"2022-07-25T17:21:16.436Z","createdBy":"openaip-system","updatedBy":"OPONcQnzWGOLiJSceNaf8pvx1fA2","elevationGeoid":{"geoidHeight":50.31300000000002,"hae":663.313},"__v":0},{"_id":"629cca0af4b4089a578e4f05","name":"NOVEMBER2","compulsory":false,"country":"DE","airports":["62614a93cb27f4250944696a"],"geometry":{"type":"Point","coordinates":[9.96245,49.43806388888889]},"elevation":{"value":422,"unit":0,"referenceDatum":1},"createdAt":"2022-06-05T15:21:46.103Z","updatedAt":"2022-06-28T05:14:27.360Z","createdBy":"openaip-system","updatedBy":"eBT9qSrxquPVguazo7MwJzzaf2p1","elevationGeoid":{"geoidHeight":48.55084769435999,"hae":470.55084769435996},"__v":0},{"_id":"626d3cc532bd1bd6740bfe75","name":"SIERRA","compulsory":true,"country":"CZ","airports":["6261486e1eacded7b7bb2c8d"],"geometry":{"type":"Point","coordinates":[12.84,50.083888888888886]},"elevation":{"value":525,"unit":0,"referenceDatum":1},"createdAt":"2022-04-30T13:42:29.803Z","updatedAt":"2022-04-30T13:50:04.357Z","createdBy":"OPONcQnzWGOLiJSceNaf8pvx1fA2","updatedBy":"OPONcQnzWGOLiJSceNaf8pvx1fA2","elevationGeoid":{"geoidHeight":46.5758864,"hae":571.5758864},"__v":0},{"_id":"629cca08f4b4089a578e4efc","name":"NOVEMBER1","compulsory":true,"country":"DE","airports":["62614a93cb27f4250944696a"],"geometry":{"type":"Point","coordinates":[9.962333333333333,49.47792777777778]},"elevation":{"value":406,"unit":0,"referenceDatum":1},"createdAt":"2022-06-05T15:21:44.977Z","updatedAt":"2022-06-28T05:13:19.363Z","createdBy":"openaip-system","updatedBy":"eBT9qSrxquPVguazo7MwJzzaf2p1","elevationGeoid":{"geoidHeight":48.504843481600005,"hae":454.5048434816},"__v":0},{"_id":"629cca0ef4b4089a578e4f29","name":"WHISKEY2","compulsory":false,"country":"DE","airports":["62614a93cb27f4250944696a"],"geometry":{"type":"Point","coordinates":[9.839547222222222,49.389313888888886]},"elevation":{"value":406,"unit":0,"referenceDatum":1},"createdAt":"2022-06-05T15:21:50.545Z","updatedAt":"2022-06-28T05:18:08.982Z","createdBy":"openaip-system","updatedBy":"eBT9qSrxquPVguazo7MwJzzaf2p1","elevationGeoid":{"geoidHeight":48.62750549681334,"hae":454.62750549681334},"__v":0},{"_id":"629cc9b9f4b4089a578e4c42","name":"QUEBEC","compulsory":true,"country":"DE","airports":["62614a72cb27f42509445c42"],"geometry":{"type":"Point","coordinates":[11.923333333333334,50.19833333333333]},"elevation":{"value":557,"unit":0,"referenceDatum":1},"createdAt":"2022-06-05T15:20:25.745Z","updatedAt":"2022-06-05T19:46:24.943Z","createdBy":"openaip-system","updatedBy":"OPONcQnzWGOLiJSceNaf8pvx1fA2","elevationGeoid":{"geoidHeight":47.425531199999995,"hae":604.4255312},"__v":0},{"_id":"6801fc4cdae21b7bb0a1ed33","createdBy":"OPONcQnzWGOLiJSceNaf8pvx1fA2","createdAt":"2025-04-18T07:16:28.640Z","updatedBy":"OPONcQnzWGOLiJSceNaf8pvx1fA2","updatedAt":"2025-04-18T08:26:43.187Z","name":"PBN1","compulsory":true,"country":"IT","airports":["62614bf6cb27f4250944e9a2"],"geometry":{"type":"Point","coordinates":[11.3558333333333,46.6422222222222]},"elevation":{"value":972,"unit":0,"referenceDatum":1},"remarks":"SARENTINO\nFROM OZE VOR: 009°/14NM","__v":0},{"_id":"626d3cb632bd1bd6740bfe63","name":"ECHO","compulsory":true,"country":"CZ","airports":["6261486e1eacded7b7bb2c8d"],"geometry":{"type":"Point","coordinates":[13.126666666666667,50.08416666666667]},"elevation":{"value":492,"unit":0,"referenceDatum":1},"createdAt":"2022-04-30T13:42:14.523Z","updatedAt":"2022-04-30T13:49:56.437Z","createdBy":"OPONcQnzWGOLiJSceNaf8pvx1fA2","updatedBy":"OPONcQnzWGOLiJSceNaf8pvx1fA2","elevationGeoid":{"geoidHeight":46.56135120000002,"hae":538.5613512},"__v":0},{"_id":"629cc993f4b4089a578e4ae6","name":"OSCAR","compulsory":true,"country":"DE","airports":["62614a5f5e9ded57104439f9"],"geometry":{"type":"Point","coordinates":[9.56,47.73833333333333]},"elevation":{"value":421,"unit":0,"referenceDatum":1},"createdAt":"2022-06-05T15:19:47.951Z","updatedAt":"2022-06-05T19:44:41.882Z","createdBy":"openaip-system","updatedBy":"OPONcQnzWGOLiJSceNaf8pvx1fA2","elevationGeoid":{"geoidHeight":46.86106799999999,"hae":467.861068},"__v":0},{"_id":"629cca0df4b4089a578e4f20","name":"WHISKEY1","compulsory":true,"country":"DE","airports":["62614a93cb27f4250944696a"],"geometry":{"type":"Point","coordinates":[9.799722222222222,49.40579722222222]},"elevation":{"value":403,"unit":0,"referenceDatum":1},"createdAt":"2022-06-05T15:21:49.508Z","updatedAt":"2022-06-28T05:16:58.485Z","createdBy":"openaip-system","updatedBy":"eBT9qSrxquPVguazo7MwJzzaf2p1","elevationGeoid":{"geoidHeight":48.62014035133333,"hae":451.62014035133336},"__v":0},{"_id":"629cc9b8f4b4089a578e4c39","name":"SIERRA","compulsory":true,"country":"DE","airports":["62614a72cb27f42509445c42"],"geometry":{"type":"Point","coordinates":[11.781666666666666,50.205]},"elevation":{"value":578,"unit":0,"referenceDatum":1},"createdAt":"2022-06-05T15:20:24.734Z","updatedAt":"2022-06-05T19:46:22.461Z","createdBy":"openaip-system","updatedBy":"OPONcQnzWGOLiJSceNaf8pvx1fA2","elevationGeoid":{"geoidHeight":47.54060040000002,"hae":625.5406004},"__v":0},{"_id":"629dbdc384c57df79c237d5b","name":"AUTOBAHN AMSTETTEN WEST","compulsory":true,"country":"AT","airports":["6261443a1e911989f7b38102"],"geometry":{"type":"Point","coordinates":[14.836667,48.135]},"elevation":{"value":368,"unit":0,"referenceDatum":1},"createdAt":"2022-06-06T08:41:39.408Z","updatedAt":"2022-07-20T05:25:16.116Z","createdBy":"openaip-system","updatedBy":"OPONcQnzWGOLiJSceNaf8pvx1fA2","elevationGeoid":{"geoidHeight":46.1533446144,"hae":414.1533446144},"__v":0},{"_id":"629ccdd1ac58872690a8a926","name":"E","compulsory":false,"country":"CH","airports":["626151a4cb27f4250946703a"],"geometry":{"type":"Point","coordinates":[9.686111111111112,47.525]},"elevation":{"value":396,"unit":0,"referenceDatum":1},"remarks":"St. Gallen Altenrhein airport","createdAt":"2022-06-05T15:37:53.086Z","updatedAt":"2023-03-05T08:31:39.054Z","createdBy":"openaip-system","updatedBy":"OPONcQnzWGOLiJSceNaf8pvx1fA2","elevationGeoid":{"geoidHeight":46.90674000000001,"hae":442.90674},"__v":2},{"_id":"626d3ccd32bd1bd6740bfe7e","name":"WHISKY","compulsory":true,"country":"CZ","airports":["6261486e1eacded7b7bb2c8d"],"geometry":{"type":"Point","coordinates":[12.758055555555556,50.18944444444445]},"elevation":{"value":429,"unit":0,"referenceDatum":1},"createdAt":"2022-04-30T13:42:37.332Z","updatedAt":"2022-04-30T13:50:08.225Z","createdBy":"OPONcQnzWGOLiJSceNaf8pvx1fA2","updatedBy":"OPONcQnzWGOLiJSceNaf8pvx1fA2","elevationGeoid":{"geoidHeight":46.0904998,"hae":475.0904998},"__v":0},{"_id":"629cca37f4b4089a578e50a0","name":"OSCAR","compulsory":true,"country":"DE","airports":["62614ab25e9ded5710445959"],"geometry":{"type":"Point","coordinates":[9.331666666666667,48.626666666666665]},"elevation":{"value":275,"unit":0,"referenceDatum":1},"createdAt":"2022-06-05T15:22:31.463Z","updatedAt":"2023-03-05T08:19:00.119Z","createdBy":"openaip-system","updatedBy":"OPONcQnzWGOLiJSceNaf8pvx1fA2","elevationGeoid":{"geoidHeight":48.36523680000002,"hae":323.36523680000005},"__v":2},{"_id":"626d3cbe32bd1bd6740bfe6c","name":"BRAVO","compulsory":true,"country":"CZ","airports":["6261486e1eacded7b7bb2c8d"],"geometry":{"type":"Point","coordinates":[12.877777777777778,50.17583333333334]},"elevation":{"value":511,"unit":0,"referenceDatum":1},"createdAt":"2022-04-30T13:42:22.225Z","updatedAt":"2022-04-30T13:50:00.546Z","createdBy":"OPONcQnzWGOLiJSceNaf8pvx1fA2","updatedBy":"OPONcQnzWGOLiJSceNaf8pvx1fA2","elevationGeoid":{"geoidHeight":46.12988999999999,"hae":557.1298899999999},"__v":0},{"_id":"629cc995f4b4089a578e4af8","name":"SIERRA","compulsory":true,"country":"DE","airports":["62614a5f5e9ded57104439f9"],"geometry":{"type":"Point","coordinates":[9.586666666666666,47.608333333333334]},"elevation":{"value":415,"unit":0,"referenceDatum":1},"createdAt":"2022-06-05T15:19:49.980Z","updatedAt":"2022-06-05T19:44:46.865Z","createdBy":"openaip-system","updatedBy":"OPONcQnzWGOLiJSceNaf8pvx1fA2","elevationGeoid":{"geoidHeight":46.746588,"hae":461.746588},"__v":0},{"_id":"629dbd741985b861f0e4429b","name":"O","compulsory":true,"country":"AT","airports":["626144331e911989f7b37e42"],"geometry":{"type":"Point","coordinates":[9.711667,47.448333]},"elevation":{"value":399,"unit":0,"referenceDatum":1},"createdAt":"2022-06-06T08:40:20.729Z","updatedAt":"2022-07-20T18:04:06.643Z","createdBy":"openaip-system","updatedBy":"OPONcQnzWGOLiJSceNaf8pvx1fA2","elevationGeoid":{"geoidHeight":47.14549873824106,"hae":446.14549873824103},"__v":0},{"_id":"629dbd731985b861f0e44290","name":"W","compulsory":true,"country":"AT","airports":["626144331e911989f7b37e42"],"geometry":{"type":"Point","coordinates":[9.691667,47.446667]},"elevation":{"value":394,"unit":0,"referenceDatum":1},"createdAt":"2022-06-06T08:40:19.605Z","updatedAt":"2022-07-20T18:04:03.973Z","createdBy":"openaip-system","updatedBy":"OPONcQnzWGOLiJSceNaf8pvx1fA2","elevationGeoid":{"geoidHeight":47.09041211375893,"hae":441.09041211375893},"__v":0},{"_id":"62d68bdfa08473596904f3f0","name":"AUTOBAHN VIEHDORF","compulsory":true,"country":"AT","airports":["6261443a1e911989f7b38102"],"geometry":{"type":"Point","coordinates":[14.91,48.146667]},"elevation":{"value":330,"unit":0,"referenceDatum":1},"createdAt":"2022-07-19T10:47:59.301Z","updatedAt":"2022-07-20T05:25:36.236Z","createdBy":"RHkPBTJIPyQQsJax00yVAYxBiPB2","updatedBy":"OPONcQnzWGOLiJSceNaf8pvx1fA2","elevationGeoid":{"geoidHeight":46.300776350399985,"hae":376.3007763504},"__v":0},{"_id":"62d68d7fa08473596904f903","name":"W","compulsory":true,"country":"AT","airports":["6261443a1e911989f7b38102"],"geometry":{"type":"Point","coordinates":[14.91,48.086667]},"elevation":{"value":259,"unit":0,"referenceDatum":1},"createdAt":"2022-07-19T10:54:55.777Z","updatedAt":"2022-07-20T05:25:46.207Z","createdBy":"RHkPBTJIPyQQsJax00yVAYxBiPB2","updatedBy":"OPONcQnzWGOLiJSceNaf8pvx1fA2","elevationGeoid":{"geoidHeight":46.23770435040001,"hae":305.2377043504},"__v":0},{"_id":"629ccdd2ac58872690a8a92c","name":"S","compulsory":false,"country":"CH","airports":["626151a4cb27f4250946703a"],"geometry":{"type":"Point","coordinates":[9.655555555555557,47.45166666666667]},"elevation":{"value":405,"unit":0,"referenceDatum":1},"remarks":"St. Gallen Altenrhein airport","createdAt":"2022-06-05T15:37:54.551Z","updatedAt":"2022-06-05T20:21:44.151Z","createdBy":"openaip-system","updatedBy":"OPONcQnzWGOLiJSceNaf8pvx1fA2","elevationGeoid":{"geoidHeight":47.002284,"hae":452.00228400000003},"__v":0},{"_id":"62d68d37a08473596904f89f","name":"ENDANFLUG 04","compulsory":true,"country":"AT","airports":["6261443a1e911989f7b38102"],"geometry":{"type":"Point","coordinates":[14.92,48.08]},"elevation":{"value":288,"unit":0,"referenceDatum":1},"createdAt":"2022-07-19T10:53:43.080Z","updatedAt":"2022-07-20T05:25:43.727Z","createdBy":"RHkPBTJIPyQQsJax00yVAYxBiPB2","updatedBy":"OPONcQnzWGOLiJSceNaf8pvx1fA2","elevationGeoid":{"geoidHeight":46.25600639999999,"hae":334.2560064},"__v":0},{"_id":"626d3cae32bd1bd6740bfe5a","name":"ALFA","compulsory":true,"country":"CZ","airports":["6261486e1eacded7b7bb2c8d"],"geometry":{"type":"Point","coordinates":[12.912777777777778,50.214444444444446]},"elevation":{"value":580,"unit":0,"referenceDatum":1},"createdAt":"2022-04-30T13:42:06.870Z","updatedAt":"2022-04-30T13:49:52.135Z","createdBy":"OPONcQnzWGOLiJSceNaf8pvx1fA2","updatedBy":"OPONcQnzWGOLiJSceNaf8pvx1fA2","elevationGeoid":{"geoidHeight":45.99756666666664,"hae":625.9975666666667},"__v":0},{"_id":"629cc992f4b4089a578e4add","name":"NOVEMBER","compulsory":true,"country":"DE","airports":["62614a5f5e9ded57104439f9"],"geometry":{"type":"Point","coordinates":[9.423333333333334,47.718333333333334]},"elevation":{"value":494,"unit":0,"referenceDatum":1},"createdAt":"2022-06-05T15:19:46.919Z","updatedAt":"2022-06-05T19:44:39.397Z","createdBy":"openaip-system","updatedBy":"OPONcQnzWGOLiJSceNaf8pvx1fA2","elevationGeoid":{"geoidHeight":46.90324799999999,"hae":540.903248},"__v":0},{"_id":"629cca38f4b4089a578e50a9","name":"SIERRA","compulsory":true,"country":"DE","airports":["62614ab25e9ded5710445959"],"geometry":{"type":"Point","coordinates":[9.231666666666667,48.61333333333333]},"elevation":{"value":406,"unit":0,"referenceDatum":1},"createdAt":"2022-06-05T15:22:32.540Z","updatedAt":"2023-03-05T08:19:26.136Z","createdBy":"openaip-system","updatedBy":"OPONcQnzWGOLiJSceNaf8pvx1fA2","elevationGeoid":{"geoidHeight":48.43304639999997,"hae":454.43304639999997},"__v":2},{"_id":"62d68e32a08473596904f9b4","name":"S","compulsory":true,"country":"AT","airports":["6261443a1e911989f7b38102"],"geometry":{"type":"Point","coordinates":[14.951666944444444,48.06166694444445]},"elevation":{"value":339,"unit":0,"referenceDatum":1},"createdAt":"2022-07-19T10:57:54.267Z","updatedAt":"2022-07-20T05:27:56.805Z","createdBy":"RHkPBTJIPyQQsJax00yVAYxBiPB2","updatedBy":"OPONcQnzWGOLiJSceNaf8pvx1fA2","elevationGeoid":{"geoidHeight":46.33510675120027,"hae":385.33510675120027},"__v":0},{"_id":"62d68c54a08473596904f4f0","name":"N","compulsory":true,"country":"AT","airports":["6261443a1e911989f7b38102"],"geometry":{"type":"Point","coordinates":[14.973333,48.146667]},"elevation":{"value":252,"unit":0,"referenceDatum":1},"createdAt":"2022-07-19T10:49:56.530Z","updatedAt":"2022-07-20T05:25:38.746Z","createdBy":"RHkPBTJIPyQQsJax00yVAYxBiPB2","updatedBy":"OPONcQnzWGOLiJSceNaf8pvx1fA2","elevationGeoid":{"geoidHeight":46.41662383439953,"hae":298.4166238343995},"__v":0},{"_id":"6801fc4bdae21b7bb0a1ed1d","createdBy":"OPONcQnzWGOLiJSceNaf8pvx1fA2","createdAt":"2025-04-18T07:16:27.412Z","updatedBy":"OPONcQnzWGOLiJSceNaf8pvx1fA2","updatedAt":"2025-04-18T08:27:08.805Z","name":"PBE1","compulsory":true,"country":"IT","airports":["62614bf6cb27f4250944e9a2"],"geometry":{"type":"Point","coordinates":[11.4763888888889,46.5127777777778]},"elevation":{"value":354,"unit":0,"referenceDatum":1},"remarks":"CASTELLETTO\nFROM OZE VOR: 048°/10NM","__v":0},{"_id":"62d68ce9a08473596904f6a9","name":"ENDANFLUG 22","compulsory":true,"country":"AT","airports":["6261443a1e911989f7b38102"],"geometry":{"type":"Point","coordinates":[14.975,48.121667]},"elevation":{"value":226,"unit":0,"referenceDatum":1},"createdAt":"2022-07-19T10:52:25.078Z","updatedAt":"2022-07-20T05:25:41.217Z","createdBy":"RHkPBTJIPyQQsJax00yVAYxBiPB2","updatedBy":"OPONcQnzWGOLiJSceNaf8pvx1fA2","elevationGeoid":{"geoidHeight":46.38636044400002,"hae":272.38636044400005},"__v":0},{"_id":"629cca2cf4b4089a578e5040","name":"OEFFINGEN","compulsory":false,"country":"DE","airports":["62614a9b5e9ded57104450d1"],"geometry":{"type":"Point","coordinates":[9.268333333333333,48.848333333333336]},"elevation":{"value":253,"unit":0,"referenceDatum":1},"createdAt":"2022-06-05T15:22:20.379Z","updatedAt":"2024-04-03T19:10:45.317Z","createdBy":"openaip-system","updatedBy":"eBT9qSrxquPVguazo7MwJzzaf2p1","elevationGeoid":{"geoidHeight":48.33401520000004,"hae":301.33401520000007},"__v":1},{"_id":"6801fc50dae21b7bb0a1ed79","createdBy":"OPONcQnzWGOLiJSceNaf8pvx1fA2","createdAt":"2025-04-18T07:16:32.111Z","updatedBy":"OPONcQnzWGOLiJSceNaf8pvx1fA2","updatedAt":"2025-04-18T08:26:43.195Z","name":"PBW1","compulsory":true,"country":"IT","airports":["62614bf6cb27f4250944e9a2"],"geometry":{"type":"Point","coordinates":[11.1802777777778,46.5541666666667]},"elevation":{"value":604,"unit":0,"referenceDatum":1},"remarks":"PRISSIANO\nFROM OZE VOR: 331°/10NM","__v":0},{"_id":"62d9532ad1d66c81fa05c38c","name":"FROJACH","compulsory":true,"country":"AT","airports":["6261443e1e911989f7b38278"],"geometry":{"type":"Point","coordinates":[14.308889,47.132778]},"elevation":{"value":755,"unit":0,"referenceDatum":1},"createdAt":"2022-07-21T13:22:50.026Z","updatedAt":"2022-07-22T05:01:28.725Z","createdBy":"RHkPBTJIPyQQsJax00yVAYxBiPB2","updatedBy":"OPONcQnzWGOLiJSceNaf8pvx1fA2","elevationGeoid":{"geoidHeight":49.17018910088035,"hae":804.1701891008804},"__v":0},{"_id":"62d95498d1d66c81fa05c884","name":"MÖDERBRUGG","compulsory":true,"country":"AT","airports":["6261443e1e911989f7b38278"],"geometry":{"type":"Point","coordinates":[14.483056,47.280556]},"elevation":{"value":911,"unit":0,"referenceDatum":1},"createdAt":"2022-07-21T13:28:56.347Z","updatedAt":"2022-07-22T05:01:42.507Z","createdBy":"RHkPBTJIPyQQsJax00yVAYxBiPB2","updatedBy":"OPONcQnzWGOLiJSceNaf8pvx1fA2","elevationGeoid":{"geoidHeight":48.848214846775306,"hae":959.8482148467754},"__v":0},{"_id":"629dbdc484c57df79c237d66","name":"AUTOBAHN AMSTETTEN OST","compulsory":true,"country":"AT","airports":["6261443a1e911989f7b38102"],"geometry":{"type":"Point","coordinates":[15.01,48.128333]},"elevation":{"value":239,"unit":0,"referenceDatum":1},"createdAt":"2022-06-06T08:41:40.412Z","updatedAt":"2022-07-20T05:25:18.590Z","createdBy":"openaip-system","updatedBy":"OPONcQnzWGOLiJSceNaf8pvx1fA2","elevationGeoid":{"geoidHeight":46.45142831711999,"hae":285.45142831711996},"__v":0},{"_id":"62d68deca08473596904f96b","name":"O","compulsory":true,"country":"AT","airports":["6261443a1e911989f7b38102"],"geometry":{"type":"Point","coordinates":[15.008333,48.103333]},"elevation":{"value":309,"unit":0,"referenceDatum":1},"createdAt":"2022-07-19T10:56:44.212Z","updatedAt":"2022-07-20T05:25:48.691Z","createdBy":"RHkPBTJIPyQQsJax00yVAYxBiPB2","updatedBy":"OPONcQnzWGOLiJSceNaf8pvx1fA2","elevationGeoid":{"geoidHeight":46.41314310384007,"hae":355.41314310384007},"__v":0},{"_id":"629cc994f4b4089a578e4aef","name":"WHISKEY","compulsory":true,"country":"DE","airports":["62614a5f5e9ded57104439f9"],"geometry":{"type":"Point","coordinates":[9.386666666666667,47.678333333333335]},"elevation":{"value":404,"unit":0,"referenceDatum":1},"createdAt":"2022-06-05T15:19:48.951Z","updatedAt":"2022-06-05T19:44:44.364Z","createdBy":"openaip-system","updatedBy":"OPONcQnzWGOLiJSceNaf8pvx1fA2","elevationGeoid":{"geoidHeight":46.85136,"hae":450.85136},"__v":0},{"_id":"629cca36f4b4089a578e5097","name":"ECHO","compulsory":true,"country":"DE","airports":["62614ab25e9ded5710445959"],"geometry":{"type":"Point","coordinates":[9.198333333333334,48.763333333333335]},"elevation":{"value":416,"unit":0,"referenceDatum":1},"createdAt":"2022-06-05T15:22:30.419Z","updatedAt":"2023-03-05T08:18:32.496Z","createdBy":"openaip-system","updatedBy":"OPONcQnzWGOLiJSceNaf8pvx1fA2","elevationGeoid":{"geoidHeight":48.363259200000016,"hae":464.3632592},"__v":2},{"_id":"62d95796d1d66c81fa05d484","name":"UNZMARKT","compulsory":false,"country":"AT","airports":["6261443e1e911989f7b38278"],"geometry":{"type":"Point","coordinates":[14.458056,47.209722]},"elevation":{"value":716,"unit":0,"referenceDatum":1},"createdAt":"2022-07-21T13:41:42.187Z","updatedAt":"2022-07-22T05:02:17.432Z","createdBy":"RHkPBTJIPyQQsJax00yVAYxBiPB2","updatedBy":"OPONcQnzWGOLiJSceNaf8pvx1fA2","elevationGeoid":{"geoidHeight":48.93452663005516,"hae":764.9345266300552},"__v":0},{"_id":"62d9561ed1d66c81fa05cd84","name":"SCHEIFLING","compulsory":false,"country":"AT","airports":["6261443e1e911989f7b38278"],"geometry":{"type":"Point","coordinates":[14.397222,47.15]},"elevation":{"value":736,"unit":0,"referenceDatum":1},"createdAt":"2022-07-21T13:35:26.932Z","updatedAt":"2022-07-22T05:02:02.606Z","createdBy":"RHkPBTJIPyQQsJax00yVAYxBiPB2","updatedBy":"OPONcQnzWGOLiJSceNaf8pvx1fA2","elevationGeoid":{"geoidHeight":49.039200240000014,"hae":785.03920024},"__v":0},{"_id":"62d7ec9d192ed35fc25855c4","name":"S","compulsory":true,"country":"AT","airports":["626144331e911989f7b37e42"],"geometry":{"type":"Point","coordinates":[9.62,47.335]},"elevation":{"value":515,"unit":0,"referenceDatum":1},"createdAt":"2022-07-20T11:53:01.372Z","updatedAt":"2022-07-20T18:04:24.424Z","createdBy":"RHkPBTJIPyQQsJax00yVAYxBiPB2","updatedBy":"OPONcQnzWGOLiJSceNaf8pvx1fA2","elevationGeoid":{"geoidHeight":47.433357599999994,"hae":562.4333576},"__v":0},{"_id":"629cca39f4b4089a578e50b2","name":"LIMA","compulsory":true,"country":"DE","airports":["62614ab25e9ded5710445959"],"geometry":{"type":"Point","coordinates":[9.143333333333333,48.611666666666665]},"elevation":{"value":443,"unit":0,"referenceDatum":1},"createdAt":"2022-06-05T15:22:33.661Z","updatedAt":"2023-03-05T08:19:50.790Z","createdBy":"openaip-system","updatedBy":"OPONcQnzWGOLiJSceNaf8pvx1fA2","elevationGeoid":{"geoidHeight":48.52953360000001,"hae":491.52953360000004},"__v":2},{"_id":"62d7ec47192ed35fc258557b","name":"K","compulsory":true,"country":"AT","airports":["626144331e911989f7b37e42"],"geometry":{"type":"Point","coordinates":[9.601389,47.345278]},"elevation":{"value":417,"unit":0,"referenceDatum":1},"createdAt":"2022-07-20T11:51:35.649Z","updatedAt":"2022-07-20T18:04:21.909Z","createdBy":"RHkPBTJIPyQQsJax00yVAYxBiPB2","updatedBy":"OPONcQnzWGOLiJSceNaf8pvx1fA2","elevationGeoid":{"geoidHeight":47.35730040775928,"hae":464.3573004077593},"__v":0},{"_id":"62d953ffd1d66c81fa05c515","name":"KATZLING","compulsory":false,"country":"AT","airports":["6261443e1e911989f7b38278"],"geometry":{"type":"Point","coordinates":[14.528056,47.243056]},"elevation":{"value":862,"unit":0,"referenceDatum":1},"createdAt":"2022-07-21T13:26:23.084Z","updatedAt":"2022-07-22T05:01:36.440Z","createdBy":"RHkPBTJIPyQQsJax00yVAYxBiPB2","updatedBy":"OPONcQnzWGOLiJSceNaf8pvx1fA2","elevationGeoid":{"geoidHeight":48.76663023477349,"hae":910.7666302347735},"__v":0},{"_id":"626d3ca632bd1bd6740bfe4e","name":"NOVEMBER","compulsory":true,"country":"CZ","airports":["6261486e1eacded7b7bb2c8d"],"geometry":{"type":"Point","coordinates":[12.94,50.29972222222222]},"elevation":{"value":392,"unit":0,"referenceDatum":1},"createdAt":"2022-04-30T13:41:58.901Z","updatedAt":"2022-04-30T13:51:04.022Z","createdBy":"OPONcQnzWGOLiJSceNaf8pvx1fA2","updatedBy":"OPONcQnzWGOLiJSceNaf8pvx1fA2","elevationGeoid":{"geoidHeight":45.87478119999997,"hae":437.8747812},"__v":0},{"_id":"629cca2bf4b4089a578e5037","name":"AUTOKINO","compulsory":false,"country":"DE","airports":["62614a9b5e9ded57104450d1"],"geometry":{"type":"Point","coordinates":[9.19,48.875]},"elevation":{"value":297,"unit":0,"referenceDatum":1},"createdAt":"2022-06-05T15:22:19.338Z","updatedAt":"2024-04-03T19:10:49.793Z","createdBy":"openaip-system","updatedBy":"eBT9qSrxquPVguazo7MwJzzaf2p1","elevationGeoid":{"geoidHeight":48.395640000000014,"hae":345.39564},"__v":1},{"_id":"629cc9b7f4b4089a578e4c30","name":"ECHO","compulsory":true,"country":"DE","airports":["62614a72cb27f42509445c42"],"geometry":{"type":"Point","coordinates":[11.94,50.375]},"elevation":{"value":519,"unit":0,"referenceDatum":1},"createdAt":"2022-06-05T15:20:23.720Z","updatedAt":"2022-06-05T19:46:19.930Z","createdBy":"openaip-system","updatedBy":"OPONcQnzWGOLiJSceNaf8pvx1fA2","elevationGeoid":{"geoidHeight":47.24982,"hae":566.24982},"__v":0},{"_id":"629cc9b6f4b4089a578e4c27","name":"NOVEMBER","compulsory":true,"country":"DE","airports":["62614a72cb27f42509445c42"],"geometry":{"type":"Point","coordinates":[11.79,50.37]},"elevation":{"value":635,"unit":0,"referenceDatum":1},"createdAt":"2022-06-05T15:20:22.552Z","updatedAt":"2022-06-05T19:46:17.367Z","createdBy":"openaip-system","updatedBy":"OPONcQnzWGOLiJSceNaf8pvx1fA2","elevationGeoid":{"geoidHeight":47.40675360000003,"hae":682.4067536},"__v":0},{"_id":"629ccdd0ac58872690a8a91d","name":"V","compulsory":false,"country":"CH","airports":["626151a4cb27f4250946703a"],"geometry":{"type":"Point","coordinates":[9.4,47.54722222222222]},"elevation":{"value":396,"unit":0,"referenceDatum":1},